Name,District,Description,Region,Category,Eestimated_time_to_visit,Foreign_Adult,Foreign_Child,Local_Adult,Local_Child,Student,Free_Entry,Latitude,Longitude,Is_Free,Category_Popularity,Avg_Cost,Cost_Category,Time_Category,Distance_from_Colombo,District_Encoded,Region_Encoded,Category_Encoded,Cluster
Viharamahadevi Park,Colombo,"Relaxed park with jogging trails, kids' play areas, space for picnics & activities like cycling.",West,Nature,2.5,0.0,0.0,0.0,0.0,0.0,Yes,6.942989697935245,79.83343981972453,1,159,0.0,,Short,3.5354288534271845,5,10,83,0
Lotus Tower,Colombo,"Lotus Tower, Colombo, Sri Lanka is a sleek, lotusâshaped communications and observation tower rising 350â¯m above the cityscape and Beira Lake. It offers panoramic views, a revolving restaurant, observation deck, and leisure facilities for visitors",West,Scenic,3.0,0.0,0.0,0.0,0.0,0.0,No,6.931366267905296,79.89711145797739,0,45,0.0,,Short,3.996586309192176,5,10,145,0
Port City,Colombo,"Port City is a new modern city being built on land next to the ocean in Colombo, Sri Lanka. It will have tall buildings, parks, shopping areas, and places for business and fun.",West,Urban,3.0,0.0,0.0,0.0,0.0,0.0,No,6.942353840239471,79.91058826446239,0,20,0.0,,Short,5.712674064458563,5,10,166,0
Galle Face,Colombo,"Galle Face is a big open area by the sea in Colombo where people go to relax and have fun. Many families and friends come here to eat snacks, fly kites, and watch the sunset",West,Beach,2.0,0.0,0.0,0.0,0.0,0.0,No,6.950282291110513,79.86510003589683,0,58,0.0,,Short,2.5997154116982824,5,10,11,0
Gangaramaya Temple,Colombo,"Historic Buddhist temple with a robust collection of artifacts & statues, plus vocational training.",West,Religious,2.0,0.0,0.0,0.0,0.0,0.0,No,6.934727430456437,79.82470085644785,0,140,0.0,,Short,4.120828219590714,5,10,125,0
One Galle face mall,Colombo,"One Galle Face Mall is Sri Lankaâs largest modern shopping centre built on the seaside in Colombo. It has seven floors of shops, restaurants, a cinema and a fun indoor play area for kids.",West,Urban,3.0,0.0,0.0,0.0,0.0,0.0,No,6.888612457843883,79.85721605090441,0,20,0.0,,Short,4.279062558309961,5,10,166,0
Colombo City Center,Colombo,"Colombo City Centre is a modern mall in the heart of Colombo, Sri Lanka, offering shopping, dining, and entertainment. It's located near Beira Lake and the Seema Malakaya temple",West,Urban,2.0,0.0,0.0,0.0,0.0,0.0,No,6.9266177101258535,79.90327843976344,0,20,0.0,,Short,4.650492744262364,5,10,166,0
Sima Malakaya,Colombo,"Seema Malaka is a peaceful Buddhist temple on platforms over Beira Lake in Colombo, Sri Lanka. Itâs a quiet place for meditation and rest, built in a beautiful minimalist style by famed architect Geoffrey Bawa",West,Religious,2.0,0.0,0.0,0.0,0.0,0.0,No,6.9607433247850095,79.82542404756231,0,140,0.0,,Short,5.428959264149934,5,10,125,0
Marino mall,Colombo,"Marino Mall is a modern shopping center in Colombo, Sri Lanka, located along Galle Road. It offers a variety of retail stores, dining options, and entertainment facilities, including a VR center and a 9D cinema.",West,Urban,3.0,0.0,0.0,0.0,0.0,0.0,No,6.962448812905184,79.85322813534424,0,20,0.0,,Short,4.007276716713835,5,10,166,0
Aluthkade Streetfood,Colombo,"This bustling stretch along Abdul Hameed Street is a vibrant nighttime hub for Sri Lankan and fusion street food, open from early evening until past midnight. Itâs a sensory-rich journey through kottu, BBQ, pani puri etc",West,Urban,2.0,0.0,0.0,0.0,0.0,0.0,No,6.951036192029564,79.86894242870406,0,20,0.0,,Short,2.7819579239557766,5,10,166,0
Dehiwala Zoological Gardens,Colombo,"Dehiwala, Colombo is one of the oldest and most beloved zoos in Asia, established in 1936 and home to over 3,000 animals across more than 300 species. It features engaging elephant and sea lion shows",West,Wildlife,5.0,0.0,0.0,0.0,0.0,0.0,No,6.937466531803961,79.85794174831122,0,7,0.0,,Medium,1.201655482692194,5,10,189,0
Independence Square,Colombo,"This serene city landmark centers around the majestic Independence Memorial Hallâan architectural tribute in traditional Kandyan style built to commemorate Sri Lankaâs independence on February 4, 1948",West,Historical,2.0,0.0,0.0,0.0,0.0,0.0,No,6.882068688818942,79.90503844525573,0,71,0.0,,Short,6.947940933388792,5,10,48,0
Beddagana Wetland Park,Colombo,"This peaceful 18-hectare urban wetland sanctuaryâopened in 2016 and part of the Diyawanna Oya flood-plain sanctuaryâfeatures boardwalk trails, observation decks, and zones like Butterfly Walk, Duck Pond",West,Nature,3.0,0.0,0.0,0.0,0.0,0.0,No,6.9175993023233415,79.84741675398611,0,159,0.0,,Short,1.8504541662496923,5,10,83,0
Sri Lanka Planetarium,Colombo,this landmark building with a distinctive lotus-inspired dome offers immersive shows under a 23â¯m fullâdome projector. Audiences journey through the universe using vintage Carl Zeiss visualization technology,West,Scenic,2.0,0.0,0.0,0.0,0.0,0.0,No,6.976331254981395,79.82853980288907,0,45,0.0,,Short,6.532134217320069,5,10,145,0
Colombo National Museum,Colombo,"Step into Sri Lankaâs glorious past at the islandâs largest museum, where royal crowns, ancient statues, and colonial treasures tell timeless stories. Housed in a stunning white palace, itâs a must-visit for culture lovers and history buffs",West,Historical,3.0,0.0,0.0,0.0,0.0,0.0,No,6.904549896062321,79.8950673508527,0,71,0.0,,Short,4.49756212422654,5,10,48,0
Holy Spirit Church - Kochchikade,Colombo,Step into a peaceful sanctuary at the heart of Colombo where devotees from all walks of life gather to pray at the site of miracles. Called St. Anthonyâs Shrine and built in grand neoclassical style,West,Religious,2.0,0.0,0.0,0.0,0.0,0.0,No,6.937343267367143,79.85933584993998,0,140,0.0,,Short,1.1513873420635243,5,10,125,0
Diyatha Uyana Park,Colombo,"Embrace the lakeside buzz at this vibrant urban oasis with floating cafes, open-air markets, and scenic sunset strolls beside Diyawanna Oya.",West,Nature,2.0,0.0,0.0,0.0,0.0,0.0,No,6.92646652096464,79.86794397460082,0,159,0.0,,Short,0.7485779258512532,5,10,83,0
Diyasaru Park,Colombo,"Lose yourself in the verdant beauty of a thriving 60âacre urban wetland packed with boardwalks, observation towers, and serene boat ridesâperfect for birdwatching and eco learning right beside Colomboâs Parliament precinct",West,Nature,2.0,0.0,0.0,0.0,0.0,0.0,No,6.8846848603004975,79.91006599653687,0,159,0.0,,Short,7.153214025043291,5,10,83,0
Bellanwila Park,Colombo,"Stretching along the peaceful Weras Lake, Bellanwila Park is a scenic 3â¯km loop ideal for jogging, cycling, or a sunset stroll. With well-maintained walking tracks, bike rentals, and a lakeside food court, it's a relaxing urban escape that locals love",West,Nature,2.0,0.0,0.0,0.0,0.0,0.0,No,6.961217006304356,79.84371577431713,0,159,0.0,,Short,4.238970366331458,5,10,83,0
Bellanwila Rajamaha Viharaya,Colombo,"A tranquil temple haven rooted in over 2,300 years of sacred tradition, this revered shrine features one of the thirty-two ancient Bo saplings from the original Anuradhapura Jaya Sri Maha Bodhi.",West,Religious,2.0,0.0,0.0,0.0,0.0,0.0,No,6.944991930230483,79.84854127632461,0,140,0.0,,Short,2.4232487288689684,5,10,125,0
Mount Lavinia Beach,Colombo,"Mount Lavinia Beach is a vibrant coastal destination in Colombo, offering a golden stretch of sand perfect for swimming, sunbathing, and enjoying the Indian Ocean's gentle waves",West,Beach,2.0,0.0,0.0,0.0,0.0,0.0,No,6.942848013016484,79.87316589316367,0,58,0.0,,Short,2.1867160826653,5,10,11,0
Kelaniya Raja Maha Viharaya,Colombo,"Sacred, historic temple said to be visited by the Buddha with paintings by a renowned artist.

 ",West,Religious,2.0,0.0,0.0,0.0,0.0,0.0,No,6.88629120158865,79.86236485640502,0,140,0.0,,Short,4.514894403878173,5,10,125,0
Crow Island Beach Park,Colombo,"Nestled in Colombo's northern suburbs, Crow Island Beach Park is a tranquil coastal retreat offering scenic walking trails, a children's playground, and a unique mangrove forest",West,Beach,2.0,0.0,0.0,0.0,0.0,0.0,No,6.917126592093973,79.81253757213578,0,58,0.0,,Short,5.489792877259986,5,10,11,0
Jami Ul-Alfar Mosque-Red Church,Colombo,"A dazzling eyeâcatcher in red and white striped elegance, the Red Mosque stands in Colomboâs bustling Pettah districtâa visual delight and spiritual hub built in just one year (1908â1909)",West,Religious,2.0,0.0,0.0,0.0,0.0,0.0,No,6.948067667171758,79.89609521993323,0,140,0.0,,Short,4.499747520762034,5,10,125,0
Water World Kelaniya,Colombo,"Water World Kelaniya is Sri Lankaâs premier public aquarium, featuring over 500 species of aquatic life, including rare creatures like the Arapaima and electric eel. ",West,Adventure,2.0,0.0,0.0,0.0,0.0,0.0,No,6.933929398042377,79.88331609388595,0,5,0.0,,Short,2.558117693829904,5,10,1,0
Floating Market - Pettah,Colombo,"Nestled along the Beira Lake in the heart of Colombo, the Pettah Floating Market is a vibrant blend of tradition and modernity, featuring 92 floating and canal-side stalls offering local produce, handicrafts, and street food.",West,Urban,2.0,0.0,0.0,0.0,0.0,0.0,No,6.938023887139322,79.81661635937537,0,20,0.0,,Short,5.07292969363137,5,10,166,0
Maligathenna Raja Maha Viharaya,Gampaha,"A peaceful ancient rock temple surrounded by forests, known for its hidden caves, scenic views, and tranquil meditation-friendly environment.",Western,Religious,1.5,0.0,0.0,0.0,0.0,0.0,Yes,7.12301080938527,79.9943644203149,1,140,0.0,,Short,26.189555184114358,7,11,125,0
Meethirigala Nissarana Forest,Gampaha,"A renowned forest monastery and meditation center offering complete silence, calm jungle paths, and a serene escape for spiritual seekers.",Western,Nature,2.0,0.0,0.0,0.0,0.0,0.0,Yes,7.053782907553583,80.02130977954774,1,159,0.0,,Short,22.567141078756844,7,11,83,0
Werahera Natural Bathing Pool,Gampaha,"A clean and shallow natural river pool popular among locals for a refreshing dip, perfect for families and nature lovers seeking a quiet swim.",Western,Nature,1.5,0.0,0.0,0.0,0.0,0.0,Yes,7.042097409582021,80.02538835706686,1,159,0.0,,Short,22.15610834653697,7,11,83,0
Dungalpitiya Beach,Gampaha,"A calm and lesser-known coastal stretch with golden sands and beautiful sunsets, great for a peaceful evening walk or a relaxing sea breeze.",Western,Beach,2.0,0.0,0.0,0.0,0.0,0.0,Yes,7.1260220307812405,79.96053651356237,1,58,0.0,,Short,24.584911961422097,7,11,11,0
Kelaniya Water World,Gampaha,"A lively water park featuring thrilling slides, lazy rivers, and splash pools, ideal for families and groups seeking a fun-filled aquatic escape.",Western,Adventure,4.0,3500.0,2500.0,2000.0,1500.0,1000.0,No,7.1034620928228245,79.99004801821324,0,5,2750.0,Premium,Medium,24.147228795964672,7,11,1,5
Muthurajawela,Gampaha,"A lush wetland eco-reserve with boat rides through mangrove forests and birdwatching opportunities, perfect for nature lovers and photographers.",Western,Nature,2.5,0.0,0.0,0.0,0.0,0.0,Yes,7.077191671958509,79.9834660281376,1,159,0.0,,Short,21.401680293058067,7,11,83,0
Thewatta Church - Ragama,Gampaha,"A historic Roman Catholic church featuring colonial-style architecture and peaceful surroundings for prayer, reflection, and cultural insight.",Western,Religious,1.0,0.0,0.0,0.0,0.0,0.0,Yes,7.1050811155281055,80.00539990717307,1,140,0.0,,Quick,25.323494339113065,7,11,125,0
Bopitiya Beach,Gampaha,"A quiet and uncrowded stretch of beach ideal for picnics, sunset views, and relaxing walks away from the tourist rush.",Western,Beach,1.5,0.0,0.0,0.0,0.0,0.0,Yes,7.084821938052738,79.95789871521485,1,58,0.0,,Short,20.454949206131612,7,11,11,0
Uswetakeiyawa Beach,Gampaha,"A popular seaside destination known for calm waters, seafood stalls, and scenic views, perfect for family outings and swimming.",Western,Beach,2.0,0.0,0.0,0.0,0.0,0.0,Yes,7.076981589849286,79.99002110046708,1,58,0.0,,Short,21.84848080233716,7,11,11,0
Preethipura Beach,Gampaha,"A peaceful, less-crowded beach with soft sands and gentle waves, ideal for quiet relaxation, sea bathing, and watching local fishermen at work.",Western,Beach,1.5,0.0,0.0,0.0,0.0,0.0,Yes,7.103423112301302,80.01949907117121,1,58,0.0,,Short,26.194737190835504,7,11,11,0
Dikkanda Walawwa,Gampaha,"A colonial-era ancestral mansion reflecting Sri Lankan architectural elegance, now a private heritage site occasionally open for cultural visits.",Western,Historical,1.5,500.0,250.0,300.0,200.0,150.0,No,7.11119026438846,80.03533538359638,0,71,400.0,Mid-Range,Short,28.011911031172975,7,11,48,0
Lunugama Raja Peella,Gampaha,"A natural freshwater spring with historical significance, surrounded by forest, offering a refreshing dip and a tranquil picnic spot.",Western,Nature,1.5,0.0,0.0,0.0,0.0,0.0,Yes,7.099692941336853,79.98013214709566,1,159,0.0,,Short,23.17344155414303,7,11,83,0
Dehiella Waterfall,Gampaha,"A hidden gem waterfall nestled in forest cover, perfect for a short hike and enjoying unspoiled nature and a cool bath under the cascading waters.",Western,Nature,2.0,0.0,0.0,0.0,0.0,0.0,Yes,7.133105252581989,80.04861103852312,1,159,0.0,,Short,30.7863658211365,7,11,83,0
Alawala Cave,Gampaha,"A prehistoric limestone cave featuring unique rock formations, attracting explorers and nature enthusiasts interested in Sri Lankas ancient past.",Western,Adventure,2.0,0.0,0.0,0.0,0.0,0.0,Yes,7.088432763101491,79.98420609812675,1,5,0.0,,Short,22.42897912545593,7,11,1,0
Dutch Fort,Gampaha,"A small colonial fort in Negombo built by the Portuguese and modified by the Dutch, offering historical charm and views of the lagoon.",Western,Historical,1.5,0.0,0.0,0.0,0.0,0.0,Yes,7.064406806569201,79.99611084512787,1,71,0.0,,Short,21.27916194906389,7,11,48,0
Negombo Prison,Gampaha,"A colonial-era structure still in use, visible from outside only; historically significant but restricted to public access.",Western,Historical,1.0,0.0,0.0,0.0,0.0,0.0,Yes,7.088379275312142,79.96856804057036,1,71,0.0,,Quick,21.421126654071156,7,11,48,0
Browns Beach,Gampaha,"A well-known beach in Negombo with golden sands, calm waters, and nearby resorts  perfect for swimming, sunbathing, and water activities.",Western,Beach,2.5,0.0,0.0,0.0,0.0,0.0,Yes,7.129829293800857,80.03168740167408,1,58,0.0,,Short,29.282853726384786,7,11,11,0
Ganekanda Mountain,Gampaha,"A scenic mountain trail offering panoramic views, a peaceful forested climb, and an adventurous experience for nature lovers and hikers.",Western,Nature,2.5,0.0,0.0,0.0,0.0,0.0,Yes,7.121743991224805,80.03143331153895,1,159,0.0,,Short,28.58566000922451,7,11,83,0
Kohobagala Mountain,Gampaha,"A moderately challenging mountain ideal for trekking, surrounded by lush greenery and offering stunning sunrise views from the summit.",Western,Nature,2.5,0.0,0.0,0.0,0.0,0.0,Yes,7.086145237117142,79.96367505163875,1,159,0.0,,Short,20.918353871216272,7,11,83,0
Pettagamkanda Viharaya,Gampaha,"A tranquil hilltop temple surrounded by nature, featuring ancient shrines and panoramic views, perfect for quiet reflection and spiritual visits.",Western,Religious,1.5,0.0,0.0,0.0,0.0,0.0,Yes,7.119986259974952,80.03046673249787,1,140,0.0,,Short,28.369070850276433,7,11,125,0
"Tonadiya Falls, Mirigama",Gampaha,"A scenic waterfall nestled in lush greenery near Mirigama, ideal for nature lovers and those looking for a quiet escape and refreshing bath.",Western,Nature,2.0,0.0,0.0,0.0,0.0,0.0,Yes,7.114850316417001,80.04350205599613,1,159,0.0,,Short,28.92828891467555,7,11,83,0
Weboda Ancient Raja Maha Viharaya,Gampaha,"A historical Buddhist temple with ancient ruins and sacred stupas, known for its spiritual significance and peaceful forest surroundings.",Western,Religious,1.5,0.0,0.0,0.0,0.0,0.0,Yes,7.043800467421982,80.000064795515,1,140,0.0,,Short,20.050290338662343,7,11,125,0
Gampaha Oruthota Walking Trail,Gampaha,"A riverside walking trail perfect for relaxing strolls, birdwatching, and enjoying the calm waters of the Attanagalu Oya.",Western,Scenic,1.5,0.0,0.0,0.0,0.0,0.0,Yes,7.0503333166904785,79.99448954498901,1,45,0.0,,Short,20.066267153481473,7,11,145,0
Bandanayake Forest Park,Gampaha,"A well-maintained urban forest park in Gampaha offering shaded trails, picnic spots, and peaceful green surroundings for relaxation and exercise.",Western,Urban/Nature,2.0,0.0,0.0,0.0,0.0,0.0,Yes,7.108360480311733,80.04450476557331,1,1,0.0,,Short,28.49627158664305,7,11,178,0
Galindawatta Ambalama,Gampaha,"A traditional wayside rest stop from the Kandyan era, showcasing simple yet elegant heritage architecture and used historically by travelers.",Western,Historical,1.0,0.0,0.0,0.0,0.0,0.0,Yes,7.090447488342177,79.98486763527578,1,71,0.0,,Quick,22.65062841457278,7,11,48,0
Maligathenna Pilikutthu Rajamaha,Gampaha,"An ancient cave temple complex hidden in a forested area, featuring historical murals, stone inscriptions, and a peaceful environment.",Western,Religious,1.5,0.0,0.0,0.0,0.0,0.0,Yes,7.055470681285099,79.95224336421863,1,140,0.0,,Short,17.39965766168591,7,11,125,0
Kelaniya Rajamaha Viharaya,Gampaha,"A sacred Buddhist temple believed to be visited by Lord Buddha, famous for its stunning murals, sculptures, and annual Duruthu Perahera festival.",Western,Religious,2.0,0.0,0.0,0.0,0.0,0.0,Yes,7.058662286728233,80.03327734922209,1,140,0.0,,Short,23.942066122656655,7,11,125,0
Guruge Nature Park,Gampaha,"A family-friendly theme and nature park combining wildlife exhibits, dinosaur models, cultural replicas, and fun activities for kids.",Western,Adventure,3.0,2000.0,1500.0,1200.0,800.0,600.0,No,7.113634728860962,80.0113495301266,0,5,1600.0,Premium,Short,26.472398112762075,7,11,1,5
Attanagalla Rajamaha Viharaya,Gampaha,"A majestic temple with historical significance as the place where King Siri Sangabo offered his life, featuring ancient ruins and forest serenity.",Western,Religious,1.5,0.0,0.0,0.0,0.0,0.0,Yes,7.047285143541244,80.01654503620568,1,140,0.0,,Short,21.70966292529065,7,11,125,0
Nathapola Temple Minuwangoda,Gampaha,"A serene village temple featuring traditional architecture and peaceful surroundings, perfect for quiet reflection and local cultural insight.",Western,Religious,1.0,0.0,0.0,0.0,0.0,0.0,Yes,7.064476380196519,79.9718569988304,1,140,0.0,,Quick,19.50173403331257,7,11,125,0
Gale Devalaya Minuwangoda,Gampaha,"A sacred shrine nestled among rocks and trees, believed to have spiritual powers, attracting devotees for blessings and traditional rituals.",Western,Religious,1.0,0.0,0.0,0.0,0.0,0.0,Yes,7.134927966032739,79.96360954809721,1,140,0.0,,Quick,25.61812725343007,7,11,125,0
Agurukaramulla Temple,Gampaha,"A famous Buddhist temple in Negombo featuring a massive seated Buddha statue, ancient murals, a dragon entrance, and a large stupa.",Western,Religious,1.5,0.0,0.0,0.0,0.0,0.0,Yes,7.086847338254569,79.98257931139248,1,140,0.0,,Short,22.18062457507289,7,11,125,0
Hamilton Canal Negombo,Gampaha,"A historic Dutch-built canal running parallel to the coast, offering boat rides, scenic views, and glimpses of Negombo's rich colonial heritage.",Western,Scenic,1.5,0.0,0.0,0.0,0.0,0.0,Yes,7.095316101055394,79.95148143511787,1,45,0.0,,Short,21.10892139632798,7,11,145,0
Katunayake Airport,Gampaha,"The main international airport of Sri Lanka (BIA), serving as the gateway to the country, with modern facilities and access to travel services.",Western,Urban,2.0,0.0,0.0,0.0,0.0,0.0,Yes,7.10032896625762,79.97548753218683,1,20,0.0,,Short,22.94501774990115,7,11,166,0
Horagolla National Park,Gampaha,"A small but rich biodiversity hotspot with tall trees, rare birds, and wildlife, ideal for nature walks and peaceful exploration.",Western,Nature,2.0,1500.0,800.0,100.0,50.0,50.0,No,7.138539211923847,80.01235265982066,0,159,800.0,Premium,Short,28.734689287670147,7,11,83,5
Manella Waterfall,Gampaha,"A hidden, less-explored waterfall surrounded by forest, offering a refreshing natural bath and quiet retreat for hikers and nature lovers.",Western,Nature,2.0,0.0,0.0,0.0,0.0,0.0,Yes,7.112042629173966,79.99764331641954,1,159,0.0,,Short,25.408669178421114,7,11,83,0
Uruwala Walagamba Rajamaha Viharaya,Gampaha,"A sacred Buddhist temple believed to be connected to King Walagamba, featuring ancient architecture and a tranquil atmosphere for spiritual seekers.",Western,Religious,1.5,0.0,0.0,0.0,0.0,0.0,Yes,7.061547758729897,80.02167836536334,1,140,0.0,,Short,23.141135247628956,7,11,125,0
Pilikuthtuwa Balumgala,Gampaha,"A rugged mountain peak surrounded by dense forest, popular among trekkers for its challenging trails and spectacular panoramic views.",Western,Nature,3.0,0.0,0.0,0.0,0.0,0.0,Yes,7.047362608610324,79.96545904446279,1,159,0.0,,Short,17.595696577003892,7,11,83,0
Alagiyawanna Falls,Gampaha,"A beautiful cascading waterfall hidden in a lush forest, offering a refreshing spot for bathing and nature photography.",Western,Nature,2.0,0.0,0.0,0.0,0.0,0.0,Yes,7.108558763267741,80.01578576513523,1,159,0.0,,Short,26.352409980234953,7,11,83,0
Bopagama Falls,Gampaha,"A serene waterfall located amidst greenery, perfect for a peaceful visit and cooling dip in natures tranquility.",Western,Nature,1.5,0.0,0.0,0.0,0.0,0.0,Yes,7.055523104692847,79.97176919003444,1,159,0.0,,Short,18.73440211417187,7,11,83,0
Asgiri Rajamaha Viharaya,Gampaha,"A historic Buddhist monastery in Kandy, famous for its cultural significance and role in the annual Esala Perahera procession.",Central,Religious,2.0,0.0,0.0,0.0,0.0,0.0,Yes,7.09808051808355,79.99596872270388,1,140,0.0,,Short,24.06832759879084,7,0,125,3
Dadagamuwa Rajamaha Viharaya,Gampaha,"A historic Buddhist temple known for its ancient statues and peaceful surroundings, offering spiritual calm and cultural insight.",Western,Religious,1.5,0.0,0.0,0.0,0.0,0.0,Yes,7.066692863681376,80.03604165729548,1,140,0.0,,Short,24.729677881338148,7,11,125,0
Henarathgoda Flower Garden,Gampaha,"A beautiful botanical garden in Gampaha with a wide variety of tropical and exotic flowers, ideal for nature walks and photography.",Western,Nature,2.0,0.0,0.0,0.0,0.0,0.0,Yes,7.1152286556485045,79.99275685643583,1,159,0.0,,Short,25.380086207888734,7,11,83,0
Morawala Beach,Gampaha,"A quiet and pristine beach with soft sand and clear waters, perfect for relaxing, swimming, and peaceful coastal walks.",Western,Beach,2.0,0.0,0.0,0.0,0.0,0.0,Yes,7.117835245596432,79.9912739262062,1,58,0.0,,Short,25.52428571886959,7,11,11,0
Rajapaksa Park (Rukmani Devi),Gampaha,"A public park and memorial dedicated to Rukmani Devi, featuring green spaces, sculptures, and areas for family outings and leisure.",Western,Urban,1.0,0.0,0.0,0.0,0.0,0.0,Yes,7.140757474757825,79.9527577103989,1,20,0.0,,Quick,25.70296096861304,7,11,166,0
Negombo Lagoon Islands,Gampaha,"A cluster of small islands rich in mangroves and birdlife, accessible by boat tours, perfect for eco-adventure and wildlife viewing.",Western,Nature,3.0,0.0,0.0,0.0,0.0,0.0,Yes,7.100255358662988,80.00738649188081,1,159,0.0,,Short,25.051954235914987,7,11,83,0
Porutota Beach,Gampaha,"A quiet and scenic beach known for its clean sand and calm waters, ideal for swimming and peaceful relaxation away from crowds.",Western,Beach,1.5,0.0,0.0,0.0,0.0,0.0,Yes,7.066746955135409,79.9980378031086,1,58,0.0,,Short,21.612997826125966,7,11,11,0
Maha Oya Estuary,Gampaha,"A biodiverse estuary where the Maha Oya river meets the sea, attracting migratory birds and offering beautiful natural scenery.",Western,Nature,2.0,0.0,0.0,0.0,0.0,0.0,Yes,7.058998174316725,80.03791452834481,1,159,0.0,,Short,24.37319071732479,7,11,83,0
St. Mary's Church,Gampaha,"A historic Catholic church known for its colonial architecture and vibrant community services, a peaceful place for worshippers.",Western,Religious,1.0,0.0,0.0,0.0,0.0,0.0,Yes,7.054861329826688,79.99666843698468,1,140,0.0,,Quick,20.584041417500735,7,11,125,0
Duwa Church,Gampaha,"A historic Catholic church located on a small island near Negombo, famous for its scenic views and peaceful atmosphere.",Western,Religious,1.0,0.0,0.0,0.0,0.0,0.0,Yes,7.0593840168407915,79.97233156260891,1,140,0.0,,Quick,19.099987530525457,7,11,125,0
Kadolkele Church,Gampaha,"A small but significant local church, featuring colonial-style architecture and serving as a community worship center.",Western,Religious,1.0,0.0,0.0,0.0,0.0,0.0,Yes,7.060707255159241,80.02741258653158,1,140,0.0,,Quick,23.571794193206042,7,11,125,0
Negombo Main Fish Market,Gampaha,"One of the largest and busiest fish markets in Sri Lanka, offering fresh seafood and a glimpse into the local fishing industry and culture.",Western,Urban,1.5,0.0,0.0,0.0,0.0,0.0,Yes,7.134028087849369,79.95339779844969,1,20,0.0,,Short,25.049231990504968,7,11,166,0
Warana Raja Maha Viharaya,Gampaha,"An ancient Buddhist temple known for its historic ruins, peaceful surroundings, and religious significance to local devotees.",Western,Religious,1.5,0.0,0.0,0.0,0.0,0.0,Yes,7.080745580847387,80.03116712614539,1,140,0.0,,Short,25.326348926343247,7,11,125,0
Giritale Lake,Polonnaruwa,"A large freshwater reservoir surrounded by forest, popular for birdwatching, boating, and nearby wildlife safaris in Minneriya National Park area.",North Central,Nature,3.0,0.0,0.0,0.0,0.0,0.0,Yes,7.91258413897869,81.00036394734536,1,159,0.0,,Short,166.41064990639282,23,4,83,1
Minneriya Lake,Polonnaruwa,"Famous for the annual elephant gathering, this vast reservoir attracts wildlife enthusiasts and offers boat safaris and spectacular nature views.",North Central,Nature,3.0,0.0,0.0,0.0,0.0,0.0,Yes,7.904245835831146,81.05115192748183,1,159,0.0,,Short,170.10061236089066,23,4,83,1
Medirigiriya Vatadagaya,Polonnaruwa,"An ancient Buddhist stupa and monastic complex with well-preserved ruins, reflecting the rich history of Sri Lankas Anuradhapura period.",North Central,Historical,2.0,0.0,0.0,0.0,0.0,0.0,Yes,7.96105412952293,81.01594449787349,1,71,0.0,,Short,171.2408553377062,23,4,48,1
Somawathiya,Polonnaruwa,"A sacred forest monastery located near the Mahaweli River, known for its ancient temples, natural beauty, and peaceful surroundings.",North Central,Religious,2.0,0.0,0.0,0.0,0.0,0.0,Yes,7.937620477843552,80.98116337899671,1,140,0.0,,Short,166.6560344913803,23,4,125,1
Borawewa Hot Springs,Polonnaruwa,"Natural hot springs known for their therapeutic properties, offering visitors a relaxing experience surrounded by scenic greenery.",North Central,Nature,1.5,0.0,0.0,0.0,0.0,0.0,Yes,7.9704896869557995,80.99281565812811,1,159,0.0,,Short,170.05432696272064,23,4,83,1
Pimburathewa,Polonnaruwa,"A small village known for traditional rural lifestyle and nearby natural attractions, offering an authentic cultural experience.",North Central,Cultural,1.0,0.0,0.0,0.0,0.0,0.0,Yes,7.976674663520008,81.04633218230359,1,26,0.0,,Quick,174.89219170793874,23,4,27,1
Parakrama Samudra / Sita Palace / Door 10,Polonnaruwa,"A large ancient reservoir with historical significance, nearby ruins of Sita Palace and the famed Door 10 gate, showcasing rich medieval architecture.",North Central,Historical,2.5,0.0,0.0,0.0,0.0,0.0,Yes,7.989640280887707,81.06789927770204,1,71,0.0,,Short,177.62384872873318,23,4,48,1
Polonnaruwa Rock Temple,Polonnaruwa,"A historic rock temple complex with ancient carvings and ruins, offering insight into Polonnaruwas religious and cultural heritage.",North Central,Historical,2.0,0.0,0.0,0.0,0.0,0.0,Yes,7.914237418133699,81.0281305535974,1,71,0.0,,Short,168.85690633110627,23,4,48,1
Manampitiya Bridge,Polonnaruwa,"A historic steel bridge spanning the Mahaweli River, notable for its colonial-era construction and scenic views of the river and surrounding greenery.",North Central,Historical,1.0,0.0,0.0,0.0,0.0,0.0,Yes,7.89924043007176,81.00357826969034,1,71,0.0,,Quick,165.71923790092265,23,4,48,1
Museum of Ancient Technology,Polonnaruwa,"A fascinating museum showcasing traditional Sri Lankan inventions, ancient tools, and historical technologies used in daily life.",North Central,Cultural,1.5,1000.0,500.0,500.0,250.0,200.0,No,7.979317282976455,81.05996751890935,0,26,750.0,Premium,Short,176.21341920570111,23,4,27,5
Ginipetti Bridge,Polonnaruwa,A colonial-era iron bridge offering picturesque views and easy access to nearby villages and nature spots.,North Central,Historical,1.0,0.0,0.0,0.0,0.0,0.0,Yes,7.9012139295726,81.0615573294935,1,71,0.0,,Quick,170.77789523601243,23,4,48,1
Pothgul Temple,Polonnaruwa,"An ancient Buddhist temple complex famous for its historic library ruins and serene atmosphere, attracting both pilgrims and history enthusiasts.",North Central,Religious,1.5,0.0,0.0,0.0,0.0,0.0,Yes,7.919995750560067,81.05682919545093,1,140,0.0,,Short,171.69199143641796,23,4,125,1
Dimbulagala Temple,Polonnaruwa,"An ancient rock temple complex perched atop a large rock formation, offering panoramic views and a glimpse into Sri Lankas monastic history.",North Central,Religious,2.0,0.0,0.0,0.0,0.0,0.0,Yes,7.894526822962734,80.99503792889533,1,140,0.0,,Short,164.66423066842765,23,4,125,1
Danigala,Polonnaruwa,"A forested hill known for its natural beauty and archaeological significance, popular with trekkers and history enthusiasts alike.",North Central,Nature,2.0,0.0,0.0,0.0,0.0,0.0,Yes,7.980977873072464,81.00062554938471,1,159,0.0,,Short,171.47374908505824,23,4,83,1
Gal Viharaya,Polonnaruwa,"A famous rock temple complex with impressive Buddha statues carved into granite, considered a masterpiece of ancient Sri Lankan art and devotion.",North Central,Religious,2.0,0.0,0.0,0.0,0.0,0.0,Yes,7.958852936303658,81.0251943154357,1,140,0.0,,Short,171.84075000522623,23,4,125,1
Parakramabahu Palace,Polonnaruwa,"The ruins of an ancient royal palace built by King Parakramabahu, offering insights into medieval architecture and Sri Lankas royal history.",North Central,Historical,2.0,0.0,0.0,0.0,0.0,0.0,Yes,7.948736215735146,81.02734683007813,1,71,0.0,,Short,171.27949452809,23,4,48,1
Kumara Pokuna,Polonnaruwa,"An ancient royal bathing pool with intricate stonework, historically used by royalty for ritual baths in the ancient city of Polonnaruwa.",North Central,Historical,1.0,0.0,0.0,0.0,0.0,0.0,Yes,7.924472795611233,81.01247654305274,1,71,0.0,,Quick,168.28095208266754,23,4,48,1
Lankathilakaya,Polonnaruwa,"A Buddhist temple complex featuring elegant architecture and serene surroundings, important for religious ceremonies and meditation.",North Central,Religious,1.5,0.0,0.0,0.0,0.0,0.0,Yes,7.969793243133345,81.02013124788508,1,140,0.0,,Short,172.2297967372788,23,4,125,1
Parakramabahu Statue,Polonnaruwa,"A large statue commemorating King Parakramabahu I, symbolizing his contributions to Sri Lankas history and culture, located near Polonnaruwa ruins.",North Central,Historical,0.5,0.0,0.0,0.0,0.0,0.0,Yes,7.968204874093503,81.04060572690926,1,71,0.0,,Quick,173.79886094648523,23,4,48,1
Sixty-day House,Polonnaruwa,"Ancient ruins believed to have been used by monks or travelers, featuring stone foundations and historical significance in the Polonnaruwa era.",North Central,Historical,1.0,0.0,0.0,0.0,0.0,0.0,Yes,7.935165437462701,81.03182617187781,1,71,0.0,,Quick,170.66879234611503,23,4,48,1
Nissankamalla Palace,Polonnaruwa,"The ruins of a grand royal palace built by King Nissankamalla, showcasing ancient architectural grandeur and offering insights into medieval Sri Lanka.",North Central,Historical,2.0,0.0,0.0,0.0,0.0,0.0,Yes,7.971766752510951,80.9916963771979,1,71,0.0,,Short,170.05937818285065,23,4,48,1
Nissankamalla Royal Court,Polonnaruwa,"An ancient royal court complex adjacent to the palace ruins, historically used for judicial and administrative purposes by King Nissankamalla.",North Central,Historical,1.5,0.0,0.0,0.0,0.0,0.0,Yes,7.911190828180423,81.01821274957308,1,71,0.0,,Short,167.80476643556256,23,4,48,1
Nelum Pokuna,Polonnaruwa,"A large lotus-shaped pond or water garden, admired for its design and cultural significance in ancient Polonnaruwa palace grounds.",North Central,Historical,1.0,0.0,0.0,0.0,0.0,0.0,Yes,7.966520527465927,81.03701827894744,1,71,0.0,,Quick,173.37905178004863,23,4,48,1
Pabalu Monastery,Polonnaruwa,"A quiet Buddhist monastery known for its peaceful environment, ancient ruins, and importance as a religious retreat in the Polonnaruwa era.",North Central,Religious,1.5,0.0,0.0,0.0,0.0,0.0,Yes,7.970328053576485,81.0402724282551,1,140,0.0,,Short,173.9267373940042,23,4,125,1
Pothgul Monastery,Polonnaruwa,"An ancient Buddhist monastery famous for its historic library ruins, serving as a center for learning and meditation during the Polonnaruwa period.",North Central,Religious,1.5,0.0,0.0,0.0,0.0,0.0,Yes,7.947314771453914,81.05312108648762,1,140,0.0,,Short,173.32576105440592,23,4,125,1
Rankoth Monastery,Polonnaruwa,"Known for the large Rankoth Vihara stupa, one of the largest ancient stupas in Sri Lanka, it is an important pilgrimage site with rich history.",North Central,Religious,2.0,0.0,0.0,0.0,0.0,0.0,Yes,7.913820940762674,81.0313874133408,1,140,0.0,,Short,169.10166936753265,23,4,125,1
Thivanka Statue House,Polonnaruwa,"A rock temple complex featuring exquisite ancient Buddha statues carved into stone, showcasing artistic and religious heritage of Polonnaruwa era.",North Central,Religious,1.5,0.0,0.0,0.0,0.0,0.0,Yes,7.9419023721383235,81.01018406430536,1,140,0.0,,Short,169.35917208160774,23,4,125,1
Thuparama Statue House,Polonnaruwa,"One of the oldest Buddhist temples in Sri Lanka, housing ancient statues and relics, reflecting early Sri Lankan Buddhist architecture and culture.",North Central,Religious,1.5,0.0,0.0,0.0,0.0,0.0,Yes,7.965421443894983,80.9858295907004,1,140,0.0,,Short,169.1081018768636,23,4,125,1
Nisshanka Latha Mandapaya,Polonnaruwa,"A unique pavilion featuring stone pillars with intricate carvings, built during King Nissankamallas reign as a place for royal ceremonies.",North Central,Historical,1.0,0.0,0.0,0.0,0.0,0.0,Yes,7.9580004878425985,80.97158438668075,1,71,0.0,,Quick,167.3978704735067,23,4,48,1
Shiva Temple,Polonnaruwa,"An ancient Hindu temple dedicated to Lord Shiva, known for its historic significance and traditional Dravidian architectural style.",North Central,Religious,1.0,0.0,0.0,0.0,0.0,0.0,Yes,7.952806028204721,81.00056256916697,1,140,0.0,,Quick,169.36931554029306,23,4,125,1
Menik Monastery,Polonnaruwa,"A peaceful Buddhist monastery surrounded by nature, offering meditation and spiritual learning opportunities in a serene environment.",North Central,Religious,1.5,0.0,0.0,0.0,0.0,0.0,Yes,7.955218456707427,80.97601228631311,1,140,0.0,,Short,167.54743013117593,23,4,125,1
Tamil Maha Seya,Polonnaruwa,"The ruins of a large ancient stupa, notable for its size and historical importance in Sri Lankas Buddhist heritage.",North Central,Religious,1.5,0.0,0.0,0.0,0.0,0.0,Yes,7.944023405185194,80.98058694159535,1,140,0.0,,Short,167.0839792677572,23,4,125,1
Sri Dalada Maligawa,Kandy,"The sacred Temple of the Tooth Relic in Kandy, a UNESCO World Heritage Site and one of the most important Buddhist pilgrimage sites worldwide.",Central,Religious,2.0,0.0,0.0,0.0,0.0,0.0,Yes,7.246495469033886,80.67332658592156,1,140,0.0,,Short,96.4220834486196,11,0,125,3
Kandy View Point,Kandy,"A panoramic lookout offering stunning views over Kandy city, the lake, and surrounding hills  perfect for photography and relaxation.",Central,Scenic,1.0,0.0,0.0,0.0,0.0,0.0,Yes,7.305289062413569,80.5843157867718,1,45,0.0,,Quick,90.16772065768524,11,0,145,3
Bahirawakanda Temple,Kandy,"A large Buddhist temple situated on a hill with a massive Buddha statue, offering spiritual ambiance and breathtaking views over Kandy.",Central,Religious,1.5,0.0,0.0,0.0,0.0,0.0,Yes,7.246046165719983,80.61182940789854,1,140,0.0,,Short,90.11543353851904,11,0,125,3
Sadagiri Seya Temple,Kandy,"A notable Buddhist temple known for its serene environment, intricate architecture, and religious significance in the Kandy region.",Central,Religious,1.5,0.0,0.0,0.0,0.0,0.0,Yes,7.3382313557498655,80.67156267136157,1,140,0.0,,Short,100.40080118504555,11,0,125,3
Ranawana Temple,Kandy,"An ancient Buddhist temple known for its tranquil atmosphere and beautiful hilltop views, attracting devotees and visitors alike.",Central,Religious,1.5,0.0,0.0,0.0,0.0,0.0,Yes,7.315260050684595,80.618158759351,1,140,0.0,,Short,93.99348221056616,11,0,125,3
Nelligala,Kandy,"A scenic hill offering hiking trails and panoramic views of Kandy city and the surrounding hills, popular among nature lovers.",Central,Nature,2.0,0.0,0.0,0.0,0.0,0.0,Yes,7.248926911185667,80.59850784967567,1,159,0.0,,Short,88.88987769309097,11,0,83,3
Peradeniya Flower Garden,Kandy,"A vibrant botanical garden near Peradeniya University featuring colorful flowers, landscaped gardens, and a great spot for relaxation.",Central,Nature,1.5,0.0,0.0,0.0,0.0,0.0,Yes,7.321187310729984,80.64512850159183,1,159,0.0,,Short,96.94586508557029,11,0,83,3
Galaha Road,Kandy,"A scenic route known for its lush greenery and access to nearby tea plantations, waterfalls, and local villages worth exploring.",Central,Scenic,1.5,0.0,0.0,0.0,0.0,0.0,Yes,7.311026812090653,80.67525300289891,1,45,0.0,,Short,99.44552677462761,11,0,145,3
Katusukonda,Kandy,"A peaceful hill area known for its scenic views, nature walks, and opportunities to observe local wildlife in a tranquil setting.",Central,Nature,2.0,0.0,0.0,0.0,0.0,0.0,Yes,7.260356345946452,80.64689783461871,1,159,0.0,,Short,94.2987250850107,11,0,83,3
Uragala,Kandy,"A popular hiking destination offering panoramic vistas of Kandy and surrounding mountains, ideal for adventure seekers and nature lovers.",Central,Nature,2.5,0.0,0.0,0.0,0.0,0.0,Yes,7.312438751372171,80.59217882787449,1,159,0.0,,Short,91.30392793150735,11,0,83,3
Hanthana Bird Sanctuary,Kandy,"A protected area near Kandy famous for its diverse bird species, peaceful trails, and excellent birdwatching opportunities.",Central,Nature,2.0,0.0,0.0,0.0,0.0,0.0,Yes,7.338137690410006,80.61686329431755,1,159,0.0,,Short,95.04806338750467,11,0,83,3
Kabaragala,Kandy,A rugged mountain peak offering challenging trails and rewarding panoramic views for experienced hikers and nature enthusiasts.,Central,Nature,3.0,0.0,0.0,0.0,0.0,0.0,Yes,7.287530229400686,80.58648862933917,1,159,0.0,,Short,89.48990709548889,11,0,83,3
Hanthana Kanda,Kandy,"A prominent hill known for hiking trails and stunning views of Kandy city and its lush surroundings, popular with nature lovers and trekkers.",Central,Nature,2.0,0.0,0.0,0.0,0.0,0.0,Yes,7.294538951812376,80.62729196536465,1,159,0.0,,Short,93.87945530892696,11,0,83,3
Embekka Temple,Kandy,"Famous for its intricate wooden carvings and unique architectural style, this historic temple is a cultural treasure near Kandy.",Central,Religious,1.5,0.0,0.0,0.0,0.0,0.0,Yes,7.2971403996618545,80.61791889893551,1,140,0.0,,Short,93.07305546516875,11,0,125,3
Pothgul Temple,Kandy,"An ancient Buddhist temple with historic ruins and a once-famous library, significant for religious and educational heritage.",Central,Religious,1.5,0.0,0.0,0.0,0.0,0.0,Yes,7.299263219281807,80.64011687368115,1,140,0.0,,Short,95.38246425792894,11,0,125,3
Haguranketha Ambalama,Kandy,"A traditional wayside rest shelter in Haguranketha, showcasing rural architecture and serving as a cultural landmark for travelers.",Central,Historical,1.0,0.0,0.0,0.0,0.0,0.0,Yes,7.333266556674575,80.59657935430377,1,71,0.0,,Quick,92.82495948524189,11,0,48,3
Pallegala Uda View Point,Kandy,"A breathtaking viewpoint offering panoramic vistas of valleys and mountains, ideal for nature lovers and photographers in the Kotmale area.",Central,Scenic,1.5,0.0,0.0,0.0,0.0,0.0,Yes,7.291420673539823,80.65287421064224,1,45,0.0,,Short,96.2902559521536,11,0,145,3
Hope Nature Pool,Kandy,"A natural freshwater pool surrounded by lush greenery, perfect for swimming and relaxing amidst nature's tranquility.",Central,Nature,1.5,0.0,0.0,0.0,0.0,0.0,Yes,7.312156195276697,80.59171262920532,1,159,0.0,,Short,91.24381935555543,11,0,83,3
Kotmale Maha Seya,Kandy,"An ancient Buddhist stupa located in Kotmale, known for its religious importance and historic significance in the region.",Central,Religious,1.5,0.0,0.0,0.0,0.0,0.0,Yes,7.24912391827902,80.68187702988038,1,140,0.0,,Short,97.40730018840927,11,0,125,3
Shri Bhakta Hanuman Kovil,Kandy,"A Hindu temple dedicated to Lord Hanuman, renowned for its vibrant religious ceremonies and colorful architecture in the Kotmale area.",Central,Religious,1.0,0.0,0.0,0.0,0.0,0.0,Yes,7.2663478102931744,80.61993831270468,1,140,0.0,,Quick,91.8329279594357,11,0,125,3
Monaragala Mountain,Monaragala,A prominent mountain peak offering hiking opportunities and breathtaking panoramic views of the Monaragala districts natural landscape.,Uva,Nature,3.0,0.0,0.0,0.0,0.0,0.0,Yes,6.8546319663319935,81.38740987892221,1,159,0.0,,Short,168.86797757491183,19,9,83,1
Daha Ata Wanguwa,Monaragala,"An ancient cave temple complex featuring historic Buddhist paintings and sculptures, set within a serene natural environment.",Uva,Religious,1.5,0.0,0.0,0.0,0.0,0.0,Yes,6.851039431561102,81.37616014579964,1,140,0.0,,Short,167.64615510898935,19,9,125,1
Walangolla Plains,Monaragala,"Expansive open plains known for their unique biodiversity and natural beauty, ideal for birdwatching and nature walks.",Uva,Nature,2.0,0.0,0.0,0.0,0.0,0.0,Yes,6.878623694562504,81.39084562662991,1,159,0.0,,Short,169.13815379125654,19,9,83,1
Look Out Point Madugoda,Monaragala,"A scenic viewpoint offering sweeping views of surrounding valleys and hills, popular for photography and peaceful relaxation.",Uva,Scenic,1.0,0.0,0.0,0.0,0.0,0.0,Yes,6.902276021572538,81.36457101912151,1,45,0.0,,Quick,166.1679148725844,19,9,145,6
Madulkele,Monaragala,"A serene village surrounded by hills and tea plantations, offering tranquil nature walks and scenic landscapes ideal for relaxation.",Uva,Nature,2.0,0.0,0.0,0.0,0.0,0.0,Yes,6.853465050062924,81.38927000467557,1,159,0.0,,Short,169.07970039537602,19,9,83,1
Heen Ganga Natural Pool,Monaragala,"A hidden natural pool formed by a stream, perfect for swimming and cooling off amid lush greenery and peaceful surroundings.",Uva,Nature,1.5,0.0,0.0,0.0,0.0,0.0,Yes,6.870125233099495,81.30652780001002,1,159,0.0,,Short,159.86019629068755,19,9,83,1
Asanaa Gala,Monaragala,A notable rock formation and natural landmark offering panoramic views and hiking opportunities in a peaceful environment.,Uva,Scenic,2.0,0.0,0.0,0.0,0.0,0.0,Yes,6.828514954145687,81.35704029546011,1,45,0.0,,Short,165.6848422116764,19,9,145,6
Alakola Estate,Monaragala,"A historic tea estate known for its beautiful plantations, colonial-era buildings, and scenic walking trails.",Uva,Nature,2.0,0.0,0.0,0.0,0.0,0.0,Yes,6.909480192078304,81.36350243324287,1,159,0.0,,Short,166.03731802661355,19,9,83,1
Ratna Ella,Kandy,"A beautiful waterfall surrounded by lush greenery, offering a refreshing spot for nature lovers and photographers in Nawalapitiya.",Central,Nature,1.5,0.0,0.0,0.0,0.0,0.0,Yes,7.335357530202456,80.67989263345943,1,159,0.0,,Short,101.07994456211944,11,0,83,3
Galpottha Nawalapitiya,Kandy,"A scenic area near Nawalapitiya known for its rolling hills, tea plantations, and peaceful village atmosphere, ideal for nature walks.",Central,Nature,2.0,0.0,0.0,0.0,0.0,0.0,Yes,7.328356013925918,80.67579436036571,1,159,0.0,,Short,100.33085781801054,11,0,83,3
Yahangala,Kandy,A prominent mountain peak offering hiking trails and panoramic views of the surrounding landscapes in the Central Province.,Central,Nature,3.0,0.0,0.0,0.0,0.0,0.0,Yes,7.320784652111605,80.58853343329717,1,159,0.0,,Short,91.38345736836416,11,0,83,3
Hatale Mini Worlds End,Kandy,"A lesser-known viewpoint offering stunning vistas of valleys and mountains, similar to the famous World's End in Horton Plains National Park.",Central,Scenic,2.0,0.0,0.0,0.0,0.0,0.0,Yes,7.308318426602795,80.65485475018585,1,45,0.0,,Short,97.28271011856565,11,0,145,3
Gurugalaoya Dam,Kandy,"A serene dam surrounded by lush greenery, offering peaceful water views and a relaxing environment for visitors.",Central,Nature,1.5,0.0,0.0,0.0,0.0,0.0,Yes,7.312078524015901,80.68127218472252,1,159,0.0,,Short,100.09651977431021,11,0,83,3
James Tayer's Seat,Kandy,"A famous viewpoint named after a British colonial officer, providing panoramic vistas of valleys and tea plantations nearby.",Central,Scenic,1.5,0.0,0.0,0.0,0.0,0.0,Yes,7.310881621950194,80.63264558445371,1,45,0.0,,Short,95.20345099421499,11,0,145,3
Rakshagala Kinihira Mountain,Kandy,"A rugged mountain with unique rock formations and hiking trails, popular among adventurous trekkers and nature enthusiasts.",Central,Nature,3.0,0.0,0.0,0.0,0.0,0.0,Yes,7.331695152054028,80.59747400961395,1,159,0.0,,Short,92.82768736174155,11,0,83,3
Kondagala,Kandy,"A hill known for its peaceful surroundings and panoramic views, ideal for hiking and nature exploration.",Central,Nature,2.0,0.0,0.0,0.0,0.0,0.0,Yes,7.33416135207151,80.5870068247675,1,159,0.0,,Short,91.94935372585444,11,0,83,3
Poddalgoda Village,Kandy,"A charming village nestled amidst rolling hills and tea plantations, offering visitors a glimpse of rural Sri Lankan life and scenic nature walks.",Central,Cultural,2.0,0.0,0.0,0.0,0.0,0.0,Yes,7.3126325902891285,80.67863744606018,1,26,0.0,,Short,99.85928397906372,11,0,27,3
Deanston Mini World End,Kandy,"A lesser-known viewpoint with stunning vistas reminiscent of the famous World's End, offering peaceful hiking and photography opportunities.",Central,Scenic,2.0,0.0,0.0,0.0,0.0,0.0,Yes,7.259530940379161,80.61191315167493,1,45,0.0,,Short,90.71688333492621,11,0,145,3
Dothalugala Nature Trail,Kandy,"A well-marked walking trail through dense forest and natural landscapes, ideal for birdwatching, flora exploration, and quiet nature immersion.",Central,Nature,2.5,0.0,0.0,0.0,0.0,0.0,Yes,7.258804432582944,80.64205949759724,1,159,0.0,,Short,93.73980351459987,11,0,83,3
Rangala Pool,Kandy,"A natural freshwater pool popular for swimming and relaxing, surrounded by lush greenery and peaceful rural settings.",Central,Nature,1.5,0.0,0.0,0.0,0.0,0.0,Yes,7.289168222547877,80.58943594040312,1,159,0.0,,Short,89.86197369053177,11,0,83,3
Sita Fort,Kandy,"A historic fortification linked to the Ramayana epic, offering visitors a mix of mythology, history, and scenic views from the hilltop location.",Central,Historical,1.5,0.0,0.0,0.0,0.0,0.0,Yes,7.308272805165127,80.66830351995479,1,71,0.0,,Short,98.62154672341093,11,0,48,3
Bellwood view point,Kandy,"A popular garden and recreational area featuring lush greenery, walking paths, and picnic spots perfect for family outings and relaxation.",Central,Nature,1.5,0.0,0.0,0.0,0.0,0.0,Yes,7.330563190664248,80.66896471175654,1,159,0.0,,Short,99.76352644364142,11,0,83,3
Narampanawa,Kandy,"A quaint village known for its tranquil environment and proximity to natural attractions, ideal for cultural exploration and nature walks.",Central,Cultural,2.0,0.0,0.0,0.0,0.0,0.0,Yes,7.329708487127652,80.5982329944871,1,26,0.0,,Short,92.7956885075627,11,0,27,3
Ceylon Tea Museum,Kandy,"A museum dedicated to the history of tea production in Sri Lanka, showcasing antique machinery, colonial heritage, and tea culture experiences.",Central,Cultural,2.0,2000.0,1000.0,500.0,300.0,300.0,No,7.2409941309361265,80.61969841272443,0,26,1250.0,Premium,Short,90.70115746802891,11,0,27,5
Lion's Mouth,Kandy,"A natural rock formation resembling a lions mouth, located on the way to the famous Adams Peak, offering stunning views and trekking experience.",Central,Nature,2.0,0.0,0.0,0.0,0.0,0.0,Yes,7.243176466726284,80.58505202691282,1,159,0.0,,Short,87.27354102672646,11,0,83,3
Elephant's Back,Kandy,"A hilltop with a distinctive shape resembling an elephants back, popular for hiking and panoramic views over surrounding valleys and forests.",Central,Nature,2.0,0.0,0.0,0.0,0.0,0.0,Yes,7.264402241785755,80.60567401133346,1,159,0.0,,Short,90.30799049690489,11,0,83,3
Sahas Uyana Nuwara,Kandy,"A cultural park in Nuwara Eliya showcasing traditional Sri Lankan arts, crafts, and cultural performances in a beautiful garden setting.",Central,Cultural,2.0,0.0,0.0,0.0,0.0,0.0,Yes,7.303706360047658,80.62511695146887,1,26,0.0,,Short,94.10644777711072,11,0,27,3
Bogambara Cultural Park,Kandy,"A historical site featuring ancient ruins and cultural exhibits, offering visitors a glimpse into Sri Lankas rich heritage and traditions.",Central,Historical,1.5,0.0,0.0,0.0,0.0,0.0,Yes,7.301545053211219,80.66564885739905,1,71,0.0,,Short,98.04052410730563,11,0,48,3
National Museum Kandy,Kandy,"The main museum in Kandy showcasing Sri Lankas rich history, artifacts, royal regalia, and cultural heritage in a grand colonial building.",Central,Cultural,2.0,1000.0,500.0,300.0,150.0,200.0,No,7.268497939155749,80.63730940288146,0,26,650.0,Premium,Short,93.68317081530357,11,0,27,5
New Ranweli Spice Garden,Kandy,"A fragrant spice garden offering guided tours to explore Sri Lankas famous spices, medicinal plants, and traditional herbal remedies.",Central,Nature,1.5,0.0,0.0,0.0,0.0,0.0,Yes,7.248393419022745,80.63434716088693,1,159,0.0,,Short,92.50891700529006,11,0,83,3
Balumgala,Kandy,A natural rock formation and scenic hiking spot providing panoramic views of the surrounding hills and valleys near Kandy.,Central,Nature,2.0,0.0,0.0,0.0,0.0,0.0,Yes,7.326442223604739,80.58759895748739,1,159,0.0,,Short,91.59232082712757,11,0,83,3
Captain Dawson Tower,Kandy,"A historic colonial-era tower built in honor of Captain Dawson, offering visitors panoramic views and a glimpse into the regions colonial past.",Central,Historical,1.5,0.0,0.0,0.0,0.0,0.0,Yes,7.2538142448029985,80.61742980776604,1,71,0.0,,Short,91.02203652835443,11,0,48,3
Kadugannawa Ambalama,Kandy,"A traditional wayside rest shelter dating back to the colonial era, famous for its unique architecture and historical significance along the old road.",Central,Historical,1.0,0.0,0.0,0.0,0.0,0.0,Yes,7.307735270332877,80.62443873484149,1,71,0.0,,Quick,94.23712289575332,11,0,48,3
Balana Fort,Kandy,"An ancient fortress offering panoramic views of the surrounding mountains, historically used to guard the strategic Kadugannawa pass.",Central,Historical,1.5,0.0,0.0,0.0,0.0,0.0,Yes,7.290091916268511,80.65231825860889,1,71,0.0,,Short,96.1731625599571,11,0,48,3
Ambuluwa,Kandy,"A scenic village surrounded by lush greenery and hills, ideal for experiencing rural life and nature walks in the Central Province.",Central,Cultural,2.0,0.0,0.0,0.0,0.0,0.0,Yes,7.2733771230541695,80.6663707994245,1,26,0.0,,Short,96.84170631849781,11,0,27,3
Railway Museum Kadugannawa,Kandy,"A small museum dedicated to Sri Lankas railway history, showcasing vintage locomotives, photographs, and memorabilia from the colonial era.",Central,Cultural,1.5,0.0,0.0,0.0,0.0,0.0,Yes,7.3083633515564195,80.67600293571931,1,26,0.0,,Short,99.39537054918044,11,0,27,3
Road Museum Complex - Kiribathkumbura,Kandy,"A unique museum complex showcasing the history and development of Sri Lankas road networks, with exhibits on construction and transportation.",Central,Cultural,1.5,0.0,0.0,0.0,0.0,0.0,Yes,7.27352371432977,80.63483778884134,1,26,0.0,,Short,93.65889922381668,11,0,27,3
Agro Technology Park - Gannoruwa,Kandy,"An educational park focusing on agricultural innovations, showcasing sustainable farming techniques and local flora, ideal for learning and exploration.",Central,Educational,2.0,0.0,0.0,0.0,0.0,0.0,Yes,7.30610145573975,80.6486449622834,1,2,0.0,,Short,96.55846308190675,11,0,43,3
Gadaladeniya Temple,Kandy,"A beautiful ancient Buddhist temple known for its unique blend of South Indian and Sri Lankan architecture, located near Kandy.",Central,Religious,1.5,0.0,0.0,0.0,0.0,0.0,Yes,7.254176427434069,80.65419962132599,1,140,0.0,,Short,94.77934697576352,11,0,125,3
Hidagala Rajamaha Temple,Kandy,"An ancient temple situated on a hilltop, famous for its religious significance and panoramic views of the surrounding area near Kandy.",Central,Religious,2.0,0.0,0.0,0.0,0.0,0.0,Yes,7.250273700583743,80.63573253268662,1,140,0.0,,Short,92.7300298266241,11,0,125,3
Embekka,Kandy,"Renowned for its exquisite wooden carvings, this historic temple is a prime example of traditional Kandyan architecture and craftsmanship.",Central,Religious,1.5,0.0,0.0,0.0,0.0,0.0,Yes,7.321132775362167,80.63106588059789,1,140,0.0,,Short,95.5580627010713,11,0,125,3
Gatabaruwa Temple,Kandy,"A peaceful Buddhist temple known for its serene surroundings and beautiful architecture, ideal for meditation and spiritual retreat.",Central,Religious,1.5,0.0,0.0,0.0,0.0,0.0,Yes,7.253274954298385,80.66942670093383,1,140,0.0,,Short,96.2990437900376,11,0,125,3
Dunumadawala Forest,Kandy,"A lush forest reserve offering hiking trails, diverse flora and fauna, and tranquil nature experiences close to Kandy city.",Central,Nature,2.0,0.0,0.0,0.0,0.0,0.0,Yes,7.241020377654919,80.58782178105137,1,159,0.0,,Short,87.45924745609821,11,0,83,3
Degaldoruwa Temple,Kandy,"Famous for its ancient cave paintings and rock-carved Buddha statues, this temple is a significant cultural and religious site near Kandy.",Central,Religious,1.5,0.0,0.0,0.0,0.0,0.0,Yes,7.334406695265543,80.60427228638116,1,140,0.0,,Short,93.63003946908393,11,0,125,3
Lankathilakaya,Kandy,An ancient Buddhist monastery ruin known for its historical significance and peaceful surroundings near Kandy.,Central,Religious,1.5,0.0,0.0,0.0,0.0,0.0,Yes,7.282606283094979,80.66585153030918,1,140,0.0,,Short,97.19655889659495,11,0,125,3
Polgolla Dam,Kandy,"A major hydroelectric dam offering scenic views of the reservoir and surrounding hills, important for regional power supply.",Central,Scenic,1.5,0.0,0.0,0.0,0.0,0.0,Yes,7.328459915565578,80.66038181008588,1,45,0.0,,Short,98.81191838465865,11,0,145,3
E L Senanayaka Children Park,Kandy,A family-friendly park in Kandy with playgrounds and recreational facilities ideal for children and local families.,Central,Recreational,1.0,0.0,0.0,0.0,0.0,0.0,Yes,7.32876546644357,80.66893659387708,1,1,0.0,,Quick,99.67214132235443,11,0,123,3
St. Paul Church Kandy,Kandy,A historic Christian church in Kandy featuring colonial architecture and serving as a religious landmark for the local Christian community.,Central,Religious,1.0,0.0,0.0,0.0,0.0,0.0,Yes,7.294625512792716,80.60728104348401,1,140,0.0,,Quick,91.89589846825683,11,0,125,3
Commonwealth War Cemetery Kandy,Kandy,"A solemn war cemetery honoring Allied soldiers who lost their lives in World Wars, with well-maintained graves and serene surroundings.",Central,Historical,1.0,0.0,0.0,0.0,0.0,0.0,Yes,7.283722776343703,80.60300261552476,1,71,0.0,,Quick,90.94377035959107,11,0,48,3
Royal Palace Park,Kandy,"A historic park surrounding the site of the old Kandyan royal palace, offering beautiful gardens and a glimpse into Sri Lankas royal heritage.",Central,Historical,1.5,0.0,0.0,0.0,0.0,0.0,Yes,7.323625014291873,80.65676459110176,1,71,0.0,,Short,98.21560401228851,11,0,48,3
Udawatta Forest,Kandy,"A protected forest reserve near Kandy known for its biodiversity, hiking trails, and tranquil nature experiences within the city limits.",Central,Nature,2.0,0.0,0.0,0.0,0.0,0.0,Yes,7.308355049956259,80.67415693398252,1,159,0.0,,Short,99.2103540168953,11,0,83,3
Elephant Temple,Kandy,"A temple dedicated to Lord Ganesh with significant cultural and religious importance, often visited for blessings and traditional ceremonies.",Central,Religious,1.0,0.0,0.0,0.0,0.0,0.0,Yes,7.258076052982616,80.64070152488888,1,140,0.0,,Quick,93.57028933759469,11,0,125,3
Kandy Lake Circle,Kandy,"A picturesque walking path surrounding the iconic Kandy Lake, perfect for leisurely strolls and enjoying the citys scenic beauty.",Central,Scenic,1.0,0.0,0.0,0.0,0.0,0.0,Yes,7.309491518226274,80.64016303102262,1,45,0.0,,Quick,95.87971399110121,11,0,145,3
Knuckles Mountain Range,Kandy,"A UNESCO World Heritage Site known for its rugged terrain, rich biodiversity, and challenging hiking trails attracting adventure seekers.",Central,Nature,6.0,0.0,0.0,0.0,0.0,0.0,Yes,7.274392862806376,80.62058273164872,1,159,0.0,,Medium,92.26405022875011,11,0,83,3
Mee Mure,Kandy,"A breathtaking viewpoint in the Knuckles Range offering panoramic views of valleys, forests, and distant mountains.",Central,Scenic,2.0,0.0,0.0,0.0,0.0,0.0,Yes,7.262495130288372,80.66985236893038,1,45,0.0,,Short,96.7282228007456,11,0,145,3
Hunnasgiriya,Kandy,"A mountainous area with hiking trails, rich biodiversity, and serene landscapes, popular among nature lovers and trekkers.",Central,Nature,3.0,0.0,0.0,0.0,0.0,0.0,Yes,7.271590956526274,80.5897958983,1,159,0.0,,Short,89.05013478976548,11,0,83,3
Asgiri Raja Maha Viharaya,Kandy,"One of the oldest and most significant Buddhist temples in Kandy, known for its rich history and role in the Buddhist monastic community.",Central,Religious,2.0,0.0,0.0,0.0,0.0,0.0,Yes,7.267973702991007,80.62085840501477,1,140,0.0,,Short,91.99910975791049,11,0,125,3
Hunnasgiriya Bambaragan Oya Ella,Kandy,"A beautiful waterfall located in the Hunnasgiriya area, surrounded by lush forests and a serene atmosphere ideal for nature lovers.",Central,Nature,2.0,0.0,0.0,0.0,0.0,0.0,Yes,7.332195062000353,80.65230480035876,1,159,0.0,,Short,98.20303778276802,11,0,83,3
Karapila Ella Falls,Kandy,"A scenic waterfall popular among hikers and photographers, located in a tranquil forest setting near Kandy.",Central,Nature,1.5,0.0,0.0,0.0,0.0,0.0,Yes,7.334020974138734,80.65332095424714,1,159,0.0,,Short,98.39497460137564,11,0,83,3
Gedaramada Ella,Kandy,"A picturesque waterfall cascading down rocky cliffs, perfect for nature walks and peaceful relaxation in a forested environment.",Central,Nature,1.5,0.0,0.0,0.0,0.0,0.0,Yes,7.27852538736305,80.68174933308136,1,159,0.0,,Short,98.62691076287263,11,0,83,3
Kahatagolla Ella Waterfall,Kandy,"A serene waterfall surrounded by dense forest, offering a refreshing stop for hikers and nature lovers in the Central Province.",Central,Nature,1.5,0.0,0.0,0.0,0.0,0.0,Yes,7.3388484019088365,80.66031820666075,1,159,0.0,,Short,99.32617263740734,11,0,83,3
Lebanon Estate Waterfall,Kandy,"A hidden waterfall located within the Lebanon tea estate, known for its scenic beauty and peaceful environment.",Central,Nature,1.5,0.0,0.0,0.0,0.0,0.0,Yes,7.303226751766784,80.67983660594278,1,159,0.0,,Short,99.5407729689001,11,0,83,3
Morahela Ella Falls,Kandy,"A beautiful cascade surrounded by lush greenery, ideal for nature photography and quiet relaxation near hiking trails.",Central,Nature,1.5,0.0,0.0,0.0,0.0,0.0,Yes,7.2702226655019935,80.6589192870329,1,159,0.0,,Short,95.94794983447528,11,0,83,3
Puna Ella,Kandy,"A charming waterfall set within a forested area, perfect for a refreshing dip and enjoying natural tranquility.",Central,Nature,1.5,0.0,0.0,0.0,0.0,0.0,Yes,7.244913073058938,80.61397830003997,1,159,0.0,,Short,90.28517605344193,11,0,83,3
Morahela Ella Falls,Kandy,"A beautiful cascade surrounded by lush greenery, ideal for nature photography and quiet relaxation near hiking trails.",Central,Nature,1.5,0.0,0.0,0.0,0.0,0.0,Yes,7.332852607496518,80.60719424216909,1,159,0.0,,Short,93.83093962719171,11,0,83,3
Puna Ella,Kandy,"A charming waterfall set within a forested area, perfect for a refreshing dip and enjoying natural tranquility.",Central,Nature,1.5,0.0,0.0,0.0,0.0,0.0,Yes,7.285353793858382,80.60682918946608,1,159,0.0,,Short,91.40276779080915,11,0,83,3
Rahas Ella Falls,Kandy,"A scenic waterfall known for its tranquil atmosphere and refreshing natural pools, popular among hikers and nature enthusiasts.",Central,Nature,1.5,0.0,0.0,0.0,0.0,0.0,Yes,7.3127029608191325,80.58692038912781,1,159,0.0,,Short,90.80430217169527,11,0,83,3
Ratna Ella Falls,Kandy,"A picturesque waterfall surrounded by rich forest, offering a peaceful retreat for visitors and photographers alike.",Central,Nature,1.5,0.0,0.0,0.0,0.0,0.0,Yes,7.259962919107412,80.61912151371533,1,159,0.0,,Short,91.46463862097629,11,0,83,3
Sitakotuwa Ella Falls,Kandy,"A serene waterfall nestled in a lush forest, offering a tranquil environment for visitors to enjoy nature and cool off in natural pools.",Central,Nature,1.5,0.0,0.0,0.0,0.0,0.0,Yes,7.2633066051968305,80.64124052534903,1,159,0.0,,Short,93.85230219109889,11,0,83,3
Sudugala Ella Falls,Kandy,"A beautiful cascade surrounded by greenery, known for its peaceful ambiance and accessibility to hikers and nature lovers.",Central,Nature,1.5,0.0,0.0,0.0,0.0,0.0,Yes,7.311221336528618,80.58855832308427,1,159,0.0,,Short,90.88749827622094,11,0,83,3
Uma Oya Ella Falls,Kandy,"A charming waterfall located near the Uma Oya region, featuring scenic views and a refreshing spot for visitors.",Central,Nature,1.5,0.0,0.0,0.0,0.0,0.0,Yes,7.257665932108954,80.58620658359426,1,159,0.0,,Short,88.04248140234807,11,0,83,3
Upper Hunnas Falls,Kandy,"An upper tier waterfall in the Hunnasgiriya area, surrounded by dense forest and offering peaceful natural scenery for visitors.",Central,Nature,1.5,0.0,0.0,0.0,0.0,0.0,Yes,7.288825988260387,80.64307510623173,1,159,0.0,,Short,95.18742479261148,11,0,83,3
Uttumvu Ella Falls,Kandy,"A tranquil waterfall surrounded by lush greenery, providing a refreshing natural retreat for visitors and hikers.",Central,Nature,1.5,0.0,0.0,0.0,0.0,0.0,Yes,7.325801331911444,80.61203659545906,1,159,0.0,,Short,93.9330566510707,11,0,83,3
Victoria Falls,Kandy,"A majestic waterfall known for its stunning cascade and scenic surroundings, ideal for nature lovers and photographers.",Central,Nature,2.0,0.0,0.0,0.0,0.0,0.0,Yes,7.328021506382475,80.61795641739171,1,159,0.0,,Short,94.62558639163878,11,0,83,3
Windsor Forest,Kandy,"A dense forest area offering hiking trails, rich biodiversity, and serene nature experiences close to the Kandy region.",Central,Nature,2.0,0.0,0.0,0.0,0.0,0.0,Yes,7.285516907795943,80.64844148595151,1,159,0.0,,Short,95.5736059196685,11,0,83,3
Wegala Ella Falls,Kandy,"A picturesque waterfall nestled in a forested area, popular for its natural beauty and peaceful ambiance for visitors.",Central,Nature,1.5,0.0,0.0,0.0,0.0,0.0,Yes,7.286772578369032,80.63023135245035,1,159,0.0,,Short,93.80551032530892,11,0,83,3
Kotaganga Ella Falls,Kandy,"A scenic waterfall surrounded by lush greenery, offering visitors a peaceful spot to enjoy nature and take refreshing dips.",Central,Nature,1.5,0.0,0.0,0.0,0.0,0.0,Yes,7.265333673280512,80.60504561221606,1,159,0.0,,Short,90.28732499069196,11,0,83,3
Perumal Ella Falls,Kandy,"A beautiful waterfall known for its clear waters and tranquil surroundings, popular with hikers and nature enthusiasts.",Central,Nature,1.5,0.0,0.0,0.0,0.0,0.0,Yes,7.297550465819729,80.67490742276469,1,159,0.0,,Short,98.78485476518486,11,0,83,3
Kalugala Gerandi Ella,Kandy,"A charming waterfall nestled among forested hills, offering serene natural beauty and a refreshing atmosphere for visitors.",Central,Nature,1.5,0.0,0.0,0.0,0.0,0.0,Yes,7.247624441539697,80.59472816379053,1,159,0.0,,Short,88.44968983870581,11,0,83,3
Godamunne Ella,Kandy,"A picturesque waterfall surrounded by rich vegetation, perfect for nature walks and peaceful relaxation in a tranquil environment.",Central,Nature,1.5,0.0,0.0,0.0,0.0,0.0,Yes,7.303900955110516,80.6251081566199,1,159,0.0,,Short,94.11508712672686,11,0,83,3
Eden Falls,Kandy,"A stunning waterfall set in a lush forest, ideal for nature lovers seeking tranquility and scenic beauty.",Central,Nature,1.5,0.0,0.0,0.0,0.0,0.0,Yes,7.255167008379849,80.62643394050549,1,159,0.0,,Short,91.99466004711738,11,0,83,3
Hakkunu Ella Falls - Halgolla,Kandy,"A beautiful cascade waterfall located in Halgolla, known for its refreshing waters and serene surroundings.",Central,Nature,1.5,0.0,0.0,0.0,0.0,0.0,Yes,7.2431783566479595,80.60271116650023,1,159,0.0,,Short,89.06462462252873,11,0,83,3
Ahupini,Kandy,"A natural spot featuring small cascades and clear pools, perfect for a quiet retreat amidst nature.",Central,Nature,1.0,0.0,0.0,0.0,0.0,0.0,Yes,7.291838246027771,80.62345217192153,1,159,0.0,,Quick,93.36805504974089,11,0,83,3
Bambarella Saree Ella Falls,Kandy,"A picturesque waterfall in Bambarella area, popular among locals for its natural beauty and peaceful atmosphere.",Central,Nature,1.5,0.0,0.0,0.0,0.0,0.0,Yes,7.324480497725287,80.59336701572518,1,159,0.0,,Short,92.04741300456604,11,0,83,3
Dehigolla Ella Falls,Kandy,"A serene waterfall surrounded by dense forest, offering a tranquil environment for nature lovers and photographers.",Central,Nature,1.5,0.0,0.0,0.0,0.0,0.0,Yes,7.282609117799798,80.6433543976052,1,159,0.0,,Short,94.92914399324873,11,0,83,3
Dekinda Ella Falls,Kandy,"A beautiful cascading waterfall set amidst lush greenery, popular with hikers and visitors seeking peaceful natural settings.",Central,Nature,1.5,0.0,0.0,0.0,0.0,0.0,Yes,7.246533932169113,80.6372890796789,1,159,0.0,,Short,92.73070043249014,11,0,83,3
Delta Falls,Kandy,"A scenic waterfall known for its multiple tiers and crystal-clear waters, ideal for relaxing and nature photography.",Central,Nature,1.5,0.0,0.0,0.0,0.0,0.0,Yes,7.3151350947555756,80.61175468734304,1,159,0.0,,Short,93.35835193235027,11,0,83,3
Diyakerella Ella,Kandy,"A charming waterfall located in a forested area, offering visitors a peaceful spot to enjoy nature and fresh air.",Central,Nature,1.5,0.0,0.0,0.0,0.0,0.0,Yes,7.29987965485176,80.67285051593362,1,159,0.0,,Short,98.68526313657334,11,0,83,3
Huluganga Ella Falls,Kandy,"A beautiful waterfall cascading through lush greenery, offering a refreshing retreat for hikers and nature lovers.",Central,Nature,1.5,0.0,0.0,0.0,0.0,0.0,Yes,7.332253639122341,80.6676913557975,1,159,0.0,,Short,99.72145116775114,11,0,83,3
Hunnas Ella Falls,Kandy,"A scenic waterfall known for its tranquil pools and serene surroundings, ideal for relaxation and nature photography.",Central,Nature,1.5,0.0,0.0,0.0,0.0,0.0,Yes,7.297737596754176,80.62382459468064,1,159,0.0,,Short,93.6882682847765,11,0,83,3
Kabaragala Ella Falls,Kandy,"A picturesque waterfall located in the hills, popular among visitors for its natural beauty and peaceful ambiance.",Central,Nature,1.5,0.0,0.0,0.0,0.0,0.0,Yes,7.331304388756414,80.60055967861321,1,159,0.0,,Short,93.1057514702511,11,0,83,3
Kalugala Hulan Ella Falls,Kandy,"A charming waterfall nestled within dense forest, offering a quiet and refreshing natural experience for visitors.",Central,Nature,1.5,0.0,0.0,0.0,0.0,0.0,Yes,7.272272667873885,80.65122906803185,1,159,0.0,,Short,95.25870101902503,11,0,83,3
Mahadoraliyadda Ella Falls,Kandy,"A stunning waterfall set in a serene natural environment, ideal for nature lovers and photographers seeking tranquility.",Central,Nature,1.5,0.0,0.0,0.0,0.0,0.0,Yes,7.307106472623024,80.64907704447533,1,159,0.0,,Short,96.64965613069819,11,0,83,3
Kalupahana Ella Falls,Kandy,"A beautiful cascade surrounded by dense forest, popular among hikers and visitors looking for peaceful nature experiences.",Central,Nature,1.5,0.0,0.0,0.0,0.0,0.0,Yes,7.264987826777367,80.58556003221285,1,159,0.0,,Short,88.31647827323059,11,0,83,3
Kaluwawetuna Ella Falls,Kandy,"A charming waterfall nestled in lush greenery, offering a refreshing retreat for visitors and a great spot for nature photography.",Central,Nature,1.5,0.0,0.0,0.0,0.0,0.0,Yes,7.2523380782778,80.58400304901731,1,159,0.0,,Short,87.57786964828519,11,0,83,3
Kosgama Ella Falls,Kandy,"A scenic waterfall known for its crystal-clear waters and tranquil setting, ideal for relaxation and hiking enthusiasts.",Central,Nature,1.5,0.0,0.0,0.0,0.0,0.0,Yes,7.326586735637066,80.58441048443376,1,159,0.0,,Short,91.29163549610213,11,0,83,3
"Alu Viharaya, Matale",Mathale,"An ancient Buddhist temple carved into rock, known for its impressive cave paintings and sacred atmosphere ideal for spiritual exploration.",Central,Religious,1.5,0.0,0.0,0.0,0.0,0.0,Yes,7.8251776209836645,80.67379797153173,1,140,0.0,,Short,133.8398462380559,18,0,125,3
Nalanda Gedige,Mathale,"A mysterious ancient structure blending Hindu and Buddhist architecture, believed to be the geographical center of Sri Lanka.",Central,Historical,1.5,0.0,0.0,0.0,0.0,0.0,Yes,7.929061707243225,80.81535421256702,1,71,0.0,,Short,152.88239124479543,18,0,48,3
Riverston,Mathale,"A scenic mountain area with breathtaking views, misty trails, and biodiversity, perfect for hiking and nature photography.",Central,Scenic,3.0,0.0,0.0,0.0,0.0,0.0,Yes,7.911874856964078,80.74622515219147,1,45,0.0,,Short,146.3093866809874,18,0,145,3
Wewathenna,Mathale,"A peaceful viewpoint offering panoramic mountain scenery, cool breeze, and a relaxing environment ideal for sunset views and picnics.",Central,Scenic,2.0,0.0,0.0,0.0,0.0,0.0,Yes,7.9508218789346925,80.6749591198624,1,45,0.0,,Short,144.5237923161085,18,0,145,3
Pitawala Pathana,Mathale,"A vast grassland plateau with unique biodiversity and the famous ""Mini World's End"" cliff, ideal for scenic walks and nature photography.",Central,Scenic,2.0,0.0,0.0,0.0,0.0,0.0,Yes,7.820231092526464,80.86619453184589,1,45,0.0,,Short,148.5506660686092,18,0,145,3
Wasgamuwa National Park,Mathale,"A rich wildlife sanctuary home to elephants, leopards, and exotic birds, offering jeep safaris and eco-tourism experiences.",Central,Wildlife,6.0,2500.0,1500.0,150.0,60.0,100.0,No,7.802731408051542,80.85136003068924,0,7,1325.0,Premium,Medium,146.04258857307636,18,0,189,5
Moragahakanda Reservoir,Mathale,"A large water reservoir surrounded by forests and hills, great for peaceful sightseeing, birdwatching, and nature escapes.",Central,Nature,1.5,0.0,0.0,0.0,0.0,0.0,Yes,7.806551535386605,80.86063103592973,1,159,0.0,,Short,147.08900924473275,18,0,83,3
Kaluganga Reservoir,Mathale,"A scenic man-made lake with calm waters and lush surroundings, perfect for relaxing and enjoying quiet natural views.",Central,Nature,1.5,0.0,0.0,0.0,0.0,0.0,Yes,7.898977370096859,80.7549957565088,1,159,0.0,,Short,145.90472835678682,18,0,83,3
Sembuwatta,Mathale,"A serene man-made lake surrounded by pine forest, offering boating, ziplining, and breathtaking mountain views for adventure seekers and families.",Central,Nature,3.0,1000.0,500.0,350.0,200.0,200.0,No,7.8947102749283085,80.85973068083163,0,159,675.0,Premium,Short,153.63078398969083,18,0,83,5
Sri Muthumariamman Kovil,Mathale,"A vibrant Hindu temple in Matale, famous for its colorful Dravidian architecture and spiritual ambiance.",Central,Religious,1.5,0.0,0.0,0.0,0.0,0.0,Yes,7.860039843776078,80.76047339392906,1,140,0.0,,Short,143.18382881301375,18,0,125,3
National Spice Garden,Mathale,"A rich educational garden displaying Sri Lankas famed spices, where visitors can see, smell, and learn about herbal plants and Ayurvedic uses.",Central,Educational,1.5,1000.0,500.0,300.0,150.0,150.0,No,7.9328214154547165,80.85473399005288,0,2,650.0,Premium,Short,156.2046753652618,18,0,43,5
Padivita Ambalama,Mathale,"An ancient wayside rest stop with traditional architecture, historically used by travelers and pilgrims for shelter and rest.",Central,Historical,1.0,0.0,0.0,0.0,0.0,0.0,Yes,7.881775778558733,80.85403667272216,1,71,0.0,,Quick,152.1856777037535,18,0,48,3
Kelebokka Viewpoint,Mathale,"A highland viewpoint with panoramic landscapes of tea estates and mountain ranges, ideal for sunrise, sunset, and relaxation.",Central,Scenic,1.5,0.0,0.0,0.0,0.0,0.0,Yes,7.854304128725345,80.7033797759627,1,45,0.0,,Short,138.4176156429098,18,0,145,3
Manigala,Mathale,"A stunning rocky mountain ridge in the Knuckles range, offering panoramic views, hiking trails, and unique rock formations ideal for adventurers.",Central,Scenic,3.0,0.0,0.0,0.0,0.0,0.0,Yes,7.92004148667286,80.80242540794885,1,45,0.0,,Short,151.17719069692407,18,0,145,3
Atanwala Village,Mathale,"A peaceful remote village nestled in the Knuckles foothills, known for its traditional lifestyle, nature trails, and eco-tourism charm.",Central,Nature,2.5,0.0,0.0,0.0,0.0,0.0,Yes,7.79574188559285,80.6839635468403,1,159,0.0,,Short,132.21280397924377,18,0,83,3
Knuckles Infinite Pool,Mathale,"A hidden natural pool with crystal-clear waters and breathtaking mountain scenery, popular for hiking and wild swimming experiences.",Central,Nature,2.5,0.0,0.0,0.0,0.0,0.0,Yes,7.9351014123525925,80.75961765182402,1,159,0.0,,Short,149.20823255888587,18,0,83,3
Knuckles Mountain Range,Mathale,"A UNESCO-listed biodiversity hotspot with cloud forests, wildlife, and trekking pathsperfect for nature lovers and adventure travelers.",Central,Wildlife,6.0,1500.0,750.0,100.0,50.0,50.0,No,7.911041305073433,80.85502893767715,0,7,800.0,Premium,Medium,154.52383635935584,18,0,189,5
Sisil Arana,Mathale,"A forest monastery and meditation center surrounded by natural beauty, ideal for spiritual retreats and peaceful getaways.",Central,Religious,1.5,0.0,0.0,0.0,0.0,0.0,Yes,7.809050724850422,80.76639880979059,1,140,0.0,,Short,139.64684745411142,18,0,125,3
Big Rock,Mathale,"A large natural rock formation offering scenic views and a quiet escape, popular among hikers and photographers for sunrise or sunset visits.",Central,Scenic,1.5,0.0,0.0,0.0,0.0,0.0,Yes,7.911240184406976,80.69869709223731,1,45,0.0,,Short,142.80575926946432,18,0,145,3
Hunnasgiriya Mountain Range,Mathale,"A lush mountainous area within the Knuckles range, known for trekking trails, rich biodiversity, and cool climate ideal for nature exploration.",Central,Nature,3.0,0.0,0.0,0.0,0.0,0.0,Yes,7.8592994505635625,80.69279334003012,1,159,0.0,,Short,138.04702620859186,18,0,83,3
Kids Play World,Mathale,"A child-friendly recreational park with fun rides, games, and playgrounds designed for family entertainment and safe adventure for young children.",Central,Urban,2.0,0.0,0.0,0.0,0.0,0.0,Yes,7.947098113444831,80.79654630865798,1,20,0.0,,Short,152.9234297962151,18,0,166,3
Pidurangala,Mathale,"A massive rock adjacent to Sigiriya with panoramic views, an ancient temple, and a popular sunrise trek among adventure seekers and pilgrims.",Central,Historical,2.0,1000.0,500.0,100.0,50.0,50.0,No,7.843875326858016,80.7101457370418,0,71,550.0,Premium,Short,138.07206589697935,18,0,48,5
Sigiriya,Mathale,"A UNESCO World Heritage Site featuring an ancient rock fortress, frescoes, water gardens, and archaeological ruins, rich in history and culture.",Central,Historical,3.0,6000.0,3000.0,100.0,50.0,50.0,No,7.937984464240563,80.69434886282839,0,71,3050.0,Premium,Short,144.76542835615487,18,0,48,5
Dambulla Cave Temple,Mathale,"A UNESCO World Heritage Site with ancient caves filled with Buddha statues and vibrant murals, reflecting over 2,000 years of Buddhist heritage.",Central,Religious,2.0,2000.0,1000.0,150.0,50.0,50.0,No,7.805395226947429,80.6739072888828,0,140,1075.0,Premium,Short,132.23398818751073,18,0,125,5
Dambulla Golden Temple,Mathale,"Famous for its massive golden Buddha statue and its role as the gateway to the Dambulla cave complex, attracting pilgrims and tourists alike.",Central,Religious,1.5,0.0,0.0,0.0,0.0,0.0,Yes,7.776856479926552,80.7565917343528,1,140,0.0,,Short,136.39951740036338,18,0,125,3
Hulangala,Mathale,"A serene mountain area with misty peaks and hidden trails, perfect for nature lovers seeking tranquility and scenic hiking experiences.",Central,Nature,2.5,0.0,0.0,0.0,0.0,0.0,Yes,7.955855810512635,80.6829640447336,1,159,0.0,,Short,145.50922894821065,18,0,83,3
Pitakanda Mountain,Mathale,A lesser-known mountain trail offering a peaceful hiking route through dense forest with panoramic views and birdwatching opportunities.,Central,Scenic,2.0,0.0,0.0,0.0,0.0,0.0,Yes,7.958856384231704,80.83343852486409,1,45,0.0,,Short,156.64573877381255,18,0,145,3
German Estate,Mathale,"A scenic tea estate surrounded by hills and mist, ideal for nature walks and learning about Sri Lanka's colonial-era tea culture.",Central,Nature,1.5,0.0,0.0,0.0,0.0,0.0,Yes,7.838968194801757,80.75312228523904,1,159,0.0,,Short,140.94729428809256,18,0,83,3
Arangala Mountain Peak,Mathale,"A striking pointed mountain offering panoramic views, steep hiking trails, and an adventurous climb for nature enthusiasts.",Central,Scenic,3.0,0.0,0.0,0.0,0.0,0.0,Yes,7.951395809169923,80.67327454880689,1,45,0.0,,Short,144.45801786827454,18,0,145,3
"Wiltshire, Matale",Mathale,"A quiet rural village known for lush paddy fields and traditional lifestyles, offering a glimpse into authentic Sri Lankan countryside life.",Central,Cultural,1.5,0.0,0.0,0.0,0.0,0.0,Yes,7.868503997288388,80.69957263924479,1,26,0.0,,Short,139.30439214514735,18,0,27,3
Hunnas Paradise,Mathale,"A cozy mountain resort surrounded by waterfalls and forest, ideal for a peaceful retreat with nature trails and misty mountain air.",Central,Urban,2.0,0.0,0.0,0.0,0.0,0.0,No,7.855384043566217,80.74297299932329,0,20,0.0,,Short,141.47734229145266,18,0,166,3
Telgamu Oya,Mathale,"A pristine river flowing through the Knuckles range, perfect for river bathing, photography, and nature-based picnics.",Central,Nature,2.0,0.0,0.0,0.0,0.0,0.0,No,7.8700389933263395,80.73912188200731,0,159,0.0,,Short,142.36689594507482,18,0,83,3
Bowathenna Reservoir,Mathale,"A peaceful water reservoir surrounded by greenery, ideal for relaxation, birdwatching, and scenic views of the central hills.",Central,Nature,1.5,0.0,0.0,0.0,0.0,0.0,Yes,7.828502796002754,80.80440467788452,1,159,0.0,,Short,144.15738326574788,18,0,83,3
Ederagala Forest Hermitage,Mathale,"A tranquil forest monastery nestled in nature, perfect for meditation and spiritual reflection with ancient ruins and serene forest surroundings.",Central,Religious,2.0,0.0,0.0,0.0,0.0,0.0,Yes,7.829134250629654,80.83678885501072,1,140,0.0,,Short,146.80822524413722,18,0,125,3
Nalanda Reservoir,Mathale,"A calm and scenic water body with panoramic mountain views, used for irrigation and popular among locals for quiet evening strolls.",Central,Nature,1.5,0.0,0.0,0.0,0.0,0.0,Yes,7.778829732449929,80.72380674022804,1,159,0.0,,Short,133.95244689627268,18,0,83,3
Nalanda Dam,Mathale,"A historical irrigation structure associated with the ancient Nalanda Reservoir, offering engineering marvels and peaceful natural surroundings.",Central,Historical,1.0,0.0,0.0,0.0,0.0,0.0,Yes,7.94389594353927,80.8703481564149,1,71,0.0,,Quick,158.28642615159535,18,0,48,3
Matale Town Viewpoint,Mathale,"A scenic viewpoint offering sweeping views of Matale town and surrounding hills, perfect for photography and peaceful sunsets.",Central,Scenic,1.5,0.0,0.0,0.0,0.0,0.0,Yes,7.794226879694593,80.8116298225263,1,45,0.0,,Short,142.15330844799652,18,0,145,3
Sindakatti Sri Kumaran Kovil,Mathale,"A vibrant Hindu temple known for its colorful architecture, religious festivals, and peaceful environment amidst rural surroundings.",Central,Religious,1.0,0.0,0.0,0.0,0.0,0.0,Yes,7.8502013491182625,80.68040086930615,1,140,0.0,,Quick,136.3868162022296,18,0,125,3
Ibban Katuwa Reservoir,Mathale,"A calm reservoir surrounded by greenery and local farmland, ideal for fishing, birdwatching, and quiet reflection.",Central,Nature,1.5,0.0,0.0,0.0,0.0,0.0,Yes,7.898212516853282,80.67301824321719,1,159,0.0,,Short,139.87868311481077,18,0,83,3
Kandalama Reservoir,Mathale,"A large, beautiful lake popular for its mirror-like reflections, kayaking, and views of the Dambulla hills and nearby luxury hotels.",Central,Nature,2.0,0.0,0.0,0.0,0.0,0.0,Yes,7.905393052208965,80.79722802190514,1,159,0.0,,Short,149.6089178343193,18,0,83,3
Sathutu Doopatha (Island of Joy),Mathale,"A small scenic island offering tranquil beaches and crystal-clear waters, perfect for day trips and relaxing nature escapes.",Central,Beach,3.0,0.0,0.0,0.0,0.0,0.0,Yes,7.91780466582648,80.72437683977286,1,58,0.0,,Short,145.20373815826267,18,0,11,3
McDowell Fortress,Mathale,"Historic ruins of a colonial-era fortress, providing insight into Sri Lankas strategic past with panoramic views and archaeological remains.",Central,Historical,2.0,0.0,0.0,0.0,0.0,0.0,Yes,7.898676190442293,80.84899037558466,1,71,0.0,,Short,153.08945691697085,18,0,48,3
Brandy Rock,Mathale,"A unique rock formation known for its distinct shape and scenic surroundings, popular for hiking and photography.",Central,Scenic,1.5,0.0,0.0,0.0,0.0,0.0,Yes,7.781631283963859,80.71494961330049,1,45,0.0,,Short,133.47791102726362,18,0,145,3
Navanagala,Mathale,"A peaceful hill with panoramic views of the surrounding landscape, ideal for hiking and nature observation.",Central,Scenic,2.0,0.0,0.0,0.0,0.0,0.0,Yes,7.950256750524619,80.7074761443544,1,45,0.0,,Short,146.7335904322966,18,0,145,3
Alakola Estate,Mathale,"A lush tea estate known for its scenic green hills and tranquil atmosphere, ideal for nature walks and photography.",Central,Nature,1.5,0.0,0.0,0.0,0.0,0.0,Yes,7.897466700078072,80.7855842627173,1,159,0.0,,Short,148.08819132240117,18,0,83,3
Lakegala,Mathale,"A prominent rock formation offering challenging hikes and stunning panoramic views from the summit, popular among adventure seekers.",Central,Scenic,3.0,0.0,0.0,0.0,0.0,0.0,Yes,7.792367361307733,80.84143728318828,1,45,0.0,,Short,144.46352274929916,18,0,145,3
Vemadilla Reservoir,Mathale,"A calm reservoir surrounded by greenery, perfect for birdwatching, fishing, and quiet relaxation in nature.",Central,Nature,1.5,0.0,0.0,0.0,0.0,0.0,Yes,7.972718068598709,80.78830970978954,1,159,0.0,,Short,154.41925387554392,18,0,83,3
Anuradha Arana,Mathale,"A peaceful forest monastery and meditation center set in tranquil natural surroundings, ideal for spiritual retreats and reflection.",Central,Religious,2.0,0.0,0.0,0.0,0.0,0.0,Yes,7.869702614698748,80.81521301810471,1,140,0.0,,Short,148.18725582422468,18,0,125,3
Manikdena Archaeological Reserve,Mathale,"A protected site featuring ancient ruins and artifacts, offering a glimpse into Sri Lanka's rich historical and cultural heritage.",Central,Historical,2.0,0.0,0.0,0.0,0.0,0.0,Yes,7.908072185779824,80.82614876857254,1,71,0.0,,Short,152.04259857540626,18,0,48,3
Muwagala,Mathale,"A scenic hill with forest trails and panoramic views, popular for hiking and nature exploration.",Central,Nature,2.0,0.0,0.0,0.0,0.0,0.0,Yes,7.865717845043014,80.81373869405148,1,159,0.0,,Short,147.76203798613076,18,0,83,3
Pahangala,Mathale,"A peaceful village surrounded by tea plantations and rolling hills, offering a serene escape and cultural insights into rural Sri Lanka.",Central,Cultural,1.5,0.0,0.0,0.0,0.0,0.0,Yes,7.866988494510947,80.7778742010876,1,26,0.0,,Short,145.0714971247646,18,0,27,3
Punchi Lokantha,Mathale,"A quaint village known for its traditional architecture and close-knit community, perfect for experiencing authentic local culture.",Central,Cultural,1.5,0.0,0.0,0.0,0.0,0.0,Yes,7.814444531454647,80.86479385867186,1,26,0.0,,Short,148.0106662251425,18,0,27,3
Scenic Route from Rattota via Riverston,Mathale,"A breathtaking drive featuring lush forests, rolling hills, and panoramic views, ideal for road trips and nature photography enthusiasts.",Central,Scenic,3.0,0.0,0.0,0.0,0.0,0.0,No,7.935091980328034,80.72203420915926,0,45,0.0,,Short,146.48261445137027,18,0,145,3
Kiri Amma Water Spring,Mathale,"A sacred natural spring believed to have healing properties, visited by both pilgrims and nature lovers seeking serenity and spiritual connection.",Central,Religious/Nature,1.5,0.0,0.0,0.0,0.0,0.0,Yes,7.890386382516383,80.71592240522925,1,8,0.0,,Short,142.3109921565952,18,0,135,3
Edangala,Mathale,"A rocky hilltop surrounded by greenery, offering peaceful hiking trails and wide views of the countryside, perfect for adventure and meditation.",Central,Scenic,2.0,0.0,0.0,0.0,0.0,0.0,Yes,7.907269529155938,80.83510762300044,1,45,0.0,,Short,152.67416048474428,18,0,145,3
Low Budget Leisure World,Mathale,"A small, family-friendly amusement park with basic rides and pools, offering fun and relaxation at affordable prices.",Central,Urban/Amusement,3.0,500.0,300.0,250.0,150.0,100.0,No,7.832922181758055,80.72547332349993,0,1,375.0,Mid-Range,Short,138.34744212920572,18,0,174,5
Meemure Ella Falls,Mathale,"A beautiful hidden waterfall nestled near the remote Meemure village, ideal for trekking, bathing, and escaping into untouched wilderness.",Central,Nature/Waterfall,2.0,0.0,0.0,0.0,0.0,0.0,Yes,7.844719448152357,80.7913918213184,1,132,0.0,,Short,144.37663635316684,18,0,115,3
Minuwan Ella Falls,Mathale,"A lesser-known but stunning waterfall surrounded by rocky cliffs and forest trails, perfect for nature hikes and quiet exploration.",Central,Nature/Waterfall,2.0,0.0,0.0,0.0,0.0,0.0,Yes,7.786727469016237,80.76955638396416,1,132,0.0,,Short,138.18844213212384,18,0,115,3
Nagenahira Gorakadeniya,Mathale,"A quiet forested area rich in biodiversity and natural beauty, perfect for eco-tourism and peaceful walks amidst Eastern greenery.",Eastern,Nature,2.0,0.0,0.0,0.0,0.0,0.0,Yes,7.952592234544712,80.79583851638743,1,159,0.0,,Short,153.319165903174,18,1,83,3
Nanda Weti Ella Falls,Mathale,"A charming waterfall cascading through lush forest surroundings, ideal for refreshing dips and nature photography in a tranquil setting.",Central,Waterfall/Nature,1.5,0.0,0.0,0.0,0.0,0.0,Yes,7.791970143885399,80.71777884753675,1,93,0.0,,Short,134.50856270678636,18,0,187,3
Opalgala Ella Falls,Mathale,"A scenic waterfall hidden within dense woodland, attracting nature lovers and hikers with its serene atmosphere and cool misty breeze.",Central,Waterfall/Nature,2.0,0.0,0.0,0.0,0.0,0.0,Yes,7.953284923360216,80.73103210845524,1,93,0.0,,Short,148.6579043252503,18,0,187,3
Pitawala Pathana Ella Fall 1,Mathale,"A small but beautiful waterfall located near Pitawala Pathana, adding a refreshing stop for trekkers exploring the unique grass plains nearby.",Central,Waterfall/Nature,1.5,0.0,0.0,0.0,0.0,0.0,Yes,7.945308557005312,80.76728189817545,1,93,0.0,,Short,150.61325230509536,18,0,187,3
Pitawala Pathana Ella Fall 2,Mathale,"Another scenic cascade near Pitawala Pathana, this hidden gem complements the grassland hike with a cool mist and serene ambiance.",Central,Waterfall/Nature,1.5,0.0,0.0,0.0,0.0,0.0,Yes,7.936896473636409,80.78788244233029,1,93,0.0,,Short,151.4462646684217,18,0,187,3
Rathninda Ella Falls,Mathale,"A tall, slender waterfall tucked into the forest, offering a peaceful retreat with the soothing sound of flowing water and fresh mountain air.",Central,Waterfall/Nature,2.0,0.0,0.0,0.0,0.0,0.0,Yes,7.916732425100254,80.72674150963468,1,93,0.0,,Short,145.28589880264084,18,0,187,3
Sera Ella Falls,Mathale,"One of Sri Lanka's most popular twin waterfalls, famous for its cave behind the falls where visitors can sit and enjoy the rushing water.",Central,Waterfall/Nature,2.5,0.0,0.0,0.0,0.0,0.0,Yes,7.938400079727961,80.6761675469305,1,93,0.0,,Short,143.53451751858373,18,0,187,3
Thaliya Wetuna Ella Falls,Mathale,"A remote and lesser-known fall with dramatic cliffs and strong cascades, ideal for explorers seeking raw natural beauty and solitude.",Central,Waterfall/Nature,2.0,0.0,0.0,0.0,0.0,0.0,Yes,7.864644804459353,80.69579326604081,1,93,0.0,,Short,138.70846999823115,18,0,187,3
Wambatuhena Ella Falls,Mathale,"Surrounded by dense jungle, this waterfall is a peaceful destination perfect for a short hike and cooling off in its refreshing stream.",Central,Waterfall/Nature,1.5,0.0,0.0,0.0,0.0,0.0,Yes,7.814466185465667,80.8345903935034,1,93,0.0,,Short,145.53278186265507,18,0,187,3
Watagoda Ella Falls,Mathale,"A serene waterfall nestled in the Watagoda hills, offering a picturesque view and a refreshing break for nature lovers and hikers alike.",Central,Waterfall/Nature,1.5,0.0,0.0,0.0,0.0,0.0,Yes,7.777530060607951,80.78039284431661,1,93,0.0,,Short,138.3665562099184,18,0,187,3
Wedda Peni Ella Falls,Mathale,"A small yet charming fall believed to have historic ties to indigenous communities, surrounded by tranquil forest paths.",Central,Waterfall/Nature,1.5,0.0,0.0,0.0,0.0,0.0,Yes,7.9645612687005,80.7994540563113,1,93,0.0,,Short,154.56709307670496,18,0,187,3
Wegala Watte Ella Falls  Elkaduwa,Mathale,"Hidden within Elkaduwas forest cover, this fall flows over mossy rocks and provides a peaceful spot ideal for quiet picnics and short hikes.",Central,Waterfall/Nature,1.5,0.0,0.0,0.0,0.0,0.0,Yes,7.954359331086473,80.73257988217344,1,93,0.0,,Short,148.8589044340932,18,0,187,3
Yatawatta Biso Ella Falls,Mathale,"A beautiful multi-tiered waterfall near Yatawatta, locally known for its legend about a royal lady (""biso"") who bathed here centuries ago.",Central,Waterfall/Nature,2.0,0.0,0.0,0.0,0.0,0.0,Yes,7.9159531381158,80.76314666240893,1,93,0.0,,Short,147.89620487650552,18,0,187,3
Opalgala Ella Falls  1,Mathale,"The first of a trio in the Opalgala area, this graceful fall cascades over rocks and is easily accessible via a forest path.",Central,Waterfall/Nature,1.5,0.0,0.0,0.0,0.0,0.0,Yes,7.937146662352318,80.74809086000442,1,93,0.0,,Short,148.535397809151,18,0,187,3
Opalgala Ella Falls  2,Mathale,"A medium-height waterfall nestled deeper in the forest, offering a calm, undisturbed setting for hikers and waterfall chasers.",Central,Waterfall/Nature,2.0,0.0,0.0,0.0,0.0,0.0,Yes,7.916002632048267,80.77789315862871,1,93,0.0,,Short,149.00101645748188,18,0,187,3
Opalgala Ella Falls  3,Mathale,"The final fall in the Opalgala series, it features a powerful drop with a natural pool perfect for a quick dip in a pristine jungle environment.",Central,Waterfall/Nature,2.0,0.0,0.0,0.0,0.0,0.0,Yes,7.815885291046348,80.83046621682263,1,93,0.0,,Short,145.30287089543987,18,0,187,3
Andanwala Ella Falls,Mathale,"A rarely visited but spectacular fall hidden among dense foliage, known for its loud roar and misty spray during the rainy season.",Central,Waterfall/Nature,2.5,0.0,0.0,0.0,0.0,0.0,Yes,7.861431902511578,80.87011623338779,1,93,0.0,,Short,151.9319001414302,18,0,187,3
Ashburnham Estate Falls,Mathale,"A scenic waterfall tucked inside the historic Ashburnham Estate, offering a serene and secluded nature retreat with estate views and birdlife.",Central,Waterfall/Nature,2.0,0.0,0.0,0.0,0.0,0.0,Yes,7.81379534934885,80.80261441957317,1,93,0.0,,Short,142.89484401347022,18,0,187,3
Balakaduwa Ella Falls,Mathale,"This elegant waterfall gracefully flows down a rocky cliff surrounded by thick greenery, perfect for peaceful nature photography and short hikes.",Central,Waterfall/Nature,1.5,0.0,0.0,0.0,0.0,0.0,Yes,7.972822898078625,80.84121000939868,1,93,0.0,,Short,158.35803025550825,18,0,187,3
Bambarakiri Ella Falls,Mathale,"A famous and easily accessible fall with a suspension bridge nearby, ideal for quick visits and refreshing scenery near Riverston.",Central,Waterfall/Nature,1.5,0.0,0.0,0.0,0.0,0.0,Yes,7.9714586870528015,80.78376573120322,1,93,0.0,,Short,153.98289518539184,18,0,187,3
Bambarun Gahana Ella Falls,Mathale,"Hidden within dense forest, this enchanting fall is lesser-known but offers a tranquil environment and untouched beauty for explorers.",Central,Waterfall/Nature,2.0,0.0,0.0,0.0,0.0,0.0,Yes,7.824404501372586,80.75751976888755,1,93,0.0,,Short,140.14296069693012,18,0,187,3
Dumbara Ella Falls,Mathale,"A tall and narrow waterfall nestled in the Dumbara hills, offering captivating views and a cool, misty atmosphere on arrival.",Central,Waterfall/Nature,2.0,0.0,0.0,0.0,0.0,0.0,Yes,7.894540059764252,80.72483277604499,1,93,0.0,,Short,143.30742281039127,18,0,187,3
Elle Gedara Ella Falls,Mathale,"A peaceful and lesser-known waterfall near a rural village, surrounded by paddy fields and forest, ideal for quiet picnics and nature walks.",Central,Waterfall/Nature,1.5,0.0,0.0,0.0,0.0,0.0,Yes,7.85259484868602,80.85939208107511,1,93,0.0,,Short,150.40010007947615,18,0,187,3
Halkadura Ella Falls,Mathale,"Flowing gently through rocky formations, this fall offers a refreshing stop for hikers exploring the highland trails of the Central Province.",Central,Waterfall/Nature,1.5,0.0,0.0,0.0,0.0,0.0,Yes,7.817456364123614,80.72738311839842,1,93,0.0,,Short,137.26198109337125,18,0,187,3
Indala Ella Falls,Mathale,"A picturesque waterfall that cascades through dense forest terrain, offering a rewarding sight for adventurous trekkers and photographers.",Central,Waterfall/Nature,2.0,0.0,0.0,0.0,0.0,0.0,Yes,7.86477270045723,80.76596167168826,1,93,0.0,,Short,143.98075660986464,18,0,187,3
Kaluwara Ella Falls,Mathale,"This seasonal waterfall glistens like dark silver (""kaluwara"") as it falls through shaded rocky cliffs, best visited after the rainy season.",Central,Waterfall/Nature,2.0,0.0,0.0,0.0,0.0,0.0,Yes,7.970694517903682,80.82723930725123,1,93,0.0,,Short,157.13579525373143,18,0,187,3
Kande Sudu Ella Falls,Mathale,"Known for its milky-white water flow, this serene fall is nestled in the hills and attracts those seeking calm, scenic beauty in the mountains.",Central,Waterfall/Nature,2.0,0.0,0.0,0.0,0.0,0.0,Yes,7.816694418710941,80.77456058761929,1,93,0.0,,Short,140.88153640533733,18,0,187,3
Kopi Ella Falls,Mathale,"A charming waterfall tucked away in a forested area, named for the aroma of coffee plants nearby. Perfect for short hikes and peaceful breaks.",Central,Waterfall/Nature,1.5,0.0,0.0,0.0,0.0,0.0,Yes,7.847901717362238,80.8053964005462,1,93,0.0,,Short,145.72588205482296,18,0,187,3
Kumbaloluwa Ella Falls,Mathale,"A scenic cascade hidden in rural greenery, ideal for explorers seeking a quiet and unspoiled natural retreat.",Central,Waterfall/Nature,2.0,0.0,0.0,0.0,0.0,0.0,Yes,7.916487419497584,80.68710037588895,1,93,0.0,,Short,142.42530528732507,18,0,187,3
Kumbaloluwa Edaruthel,Mathale,"A tranquil section of the Kumbaloluwa stream, where shallow water flows over smooth rocksgreat for picnics and local bathing.",Central,Natural Pool/Stream,1.5,0.0,0.0,0.0,0.0,0.0,Yes,7.899392797143305,80.7445848061316,1,1,0.0,,Short,145.163967605859,18,0,82,3
Kurunduwala Ella Falls,Mathale,"Hidden in the highlands, this waterfall is known for its clear, cold waters and forest backdrop, perfect for nature lovers and photographers.",Central,Waterfall/Nature,2.0,0.0,0.0,0.0,0.0,0.0,Yes,7.8024338133352975,80.83688690943448,1,93,0.0,,Short,144.82837369659055,18,0,187,3
Anuradha Arana,Mathale,"A spiritual retreat in the heart of nature, Anuradha Arana offers meditation spaces and serene forest paths for peaceful reflection.",Central,Religious/Nature,2.0,0.0,0.0,0.0,0.0,0.0,Yes,7.847316616011799,80.86049598321529,1,8,0.0,,Short,150.09349522756636,18,0,135,3
Vemadilla Reservoir,Mathale,"A large reservoir surrounded by greenery, ideal for relaxing by the water, birdwatching, or quiet scenic photography.",Central,Reservoir/Scenic,1.5,0.0,0.0,0.0,0.0,0.0,Yes,7.779059868938684,80.7185624187626,1,1,0.0,,Short,133.55932316763398,18,0,139,3
Manikdena Archaeological Reserve,Mathale,"This ancient forest reserve holds ruins of centuries-old structures, offering a quiet, historical journey into Sri Lankas forgotten past.",Central,Historical/Archaeology,2.5,0.0,0.0,0.0,0.0,0.0,Yes,7.789829679469208,80.85474459141255,1,3,0.0,,Short,145.38334975026936,18,0,55,3
Muwagala,Mathale,A lesser-known hiking spot with a rocky summit offering panoramic views of surrounding greenery. Ideal for quiet nature escapes.,Central,Nature/Hiking,2.0,0.0,0.0,0.0,0.0,0.0,Yes,7.956450575235758,80.70964767107144,1,5,0.0,,Short,147.41423443579015,18,0,100,3
Pahangala,Mathale,"A peaceful hill in the Matale region surrounded by tea plantations and misty views, perfect for hiking and landscape photography.",Central,Mountain/Hiking,2.5,0.0,0.0,0.0,0.0,0.0,Yes,7.783405488196296,80.86307388892754,1,7,0.0,,Short,145.6160263280222,18,0,76,3
Punchi Lokantha,Mathale,"A modest spiritual site nestled in the hills, offering calm surroundings and a few ancient ruins to explore.",Central,Religious/Historical,1.5,0.0,0.0,0.0,0.0,0.0,Yes,7.800841352576801,80.7350874654775,1,32,0.0,,Short,136.55078884916844,18,0,132,3
Scenic Route from Rattota via Riverston,Mathale,"A breathtaking mountain road with lush landscapes, waterfalls, and lookout points, popular among scenic drive enthusiasts and bikers.",Central,Scenic Route/Nature,2.0,0.0,0.0,0.0,0.0,0.0,Yes,7.863023739587099,80.71240401614517,1,1,0.0,,Short,139.80061769793204,18,0,150,3
Kiri Amma Water Spring,Mathale,"A sacred natural water spring believed to be blessed by the Kiri Amma deity, often visited for blessings and spiritual rituals.",Central,Religious/Natural Spring,1.0,0.0,0.0,0.0,0.0,0.0,Yes,7.847453258764197,80.6787806732961,1,1,0.0,,Quick,136.04091749329103,18,0,134,3
Edangala,Mathale,"A small hill with boulder formations and open views, ideal for a short trek or a peaceful rest spot along rural trails.",Central,Nature/Hiking,1.5,0.0,0.0,0.0,0.0,0.0,Yes,7.962160407918919,80.87083515837367,1,5,0.0,,Short,159.76363677981482,18,0,100,3
Low Budget Leisure World,Mathale,A budget-friendly amusement park offering basic water rides and family-friendly activities in a relaxed local setting.,Central,Theme Park/Leisure,3.0,800.0,500.0,400.0,200.0,200.0,No,7.811322235023452,80.78245385742129,0,1,600.0,Premium,Short,141.0946278703781,18,0,164,5
Idalgashinna,Badulla,A scenic mountain village in Badulla known for its picturesque railway station and misty walking trails through tea estates.,Uva,Nature/Scenic,2.0,0.0,0.0,0.0,0.0,0.0,Yes,7.032228824196355,81.05445576090956,1,22,0.0,,Short,132.36628921907715,2,9,112,6
Haldummulla Portuguese Fort,Badulla,"Ruins of an ancient Portuguese fort nestled on a mountain ridge, offering historic insight and sweeping views of the southern plains.",Uva,Historical,1.5,0.0,0.0,0.0,0.0,0.0,Yes,6.998332539161102,81.01179044509375,1,71,0.0,,Short,127.38858313430777,2,9,48,2
Kalupahana,Badulla,"A scenic village on the way to Bambarakanda Falls, popular for hiking and nature photography with cool climate and lush greenery.",Uva,Nature,1.5,0.0,0.0,0.0,0.0,0.0,Yes,6.999442417203949,81.10432752923634,1,159,0.0,,Short,137.60309212950278,2,9,83,6
Weli Wanguwa (Sandy Bay),Badulla,"A calm and hidden riverside spot with soft sandy shores, ideal for family picnics, natural bathing, and birdwatching.",Uva,Nature/Bathing Spot,2.0,0.0,0.0,0.0,0.0,0.0,Yes,7.017097922110614,81.02824095575133,1,1,0.0,,Short,129.34355622026558,2,9,96,6
"Gala Muduna Sri Sambuddhaloka Temple, Kahataruppa",Badulla,"A peaceful Buddhist temple located atop a rocky hill with panoramic views, perfect for meditation and spiritual retreat.",Uva,Religious/Scenic,1.5,0.0,0.0,0.0,0.0,0.0,Yes,6.97002258606169,81.02299736993383,1,3,0.0,,Short,128.47475501973562,2,9,136,6
Madulsima,Badulla,"A dreamy highland village known for its Mini Worlds End, offering dramatic cliffs, thick mist, and sunrise views above the clouds.",Uva,Scenic/Mountain,2.5,0.0,0.0,0.0,0.0,0.0,Yes,6.957304689962733,81.03119682947319,1,1,0.0,,Short,129.33801255251242,2,9,156,6
Dimbulana Hills Spot,Nuwara Eliya,"A beautiful vantage point offering sweeping views of rolling hills and tea estates, perfect for sunrise watchers and landscape photographers.",Central,Scenic/Nature,2.0,0.0,0.0,0.0,0.0,0.0,Yes,6.975752577195659,80.74754298557414,1,33,0.0,,Short,98.09441567832295,21,0,157,3
Memale Mountain Peak,Nuwara Eliya,"A moderately challenging peak known for panoramic views of surrounding mountains and valleys, popular among hikers and adventurers.",Central,Mountain/Hiking,3.0,0.0,0.0,0.0,0.0,0.0,Yes,6.974848567822756,80.79714344981521,1,7,0.0,,Short,103.56273022044601,21,0,76,3
Angry Point Mountain,Nuwara Eliya,"A rugged rocky summit famed for dramatic cliff edges and breathtaking views, attracting thrill-seekers and photographers.",Central,Mountain/Scenic,2.0,0.0,0.0,0.0,0.0,0.0,Yes,6.98846926134475,80.82331631635293,1,1,0.0,,Short,106.53516054551028,21,0,77,3
Wangedigala,Nuwara Eliya,"A peaceful hill covered with dense forest, offering nature trails and quiet spots for birdwatching and reflection.",Central,Nature,2.0,0.0,0.0,0.0,0.0,0.0,Yes,6.927334851781507,80.77745805365574,1,159,0.0,,Short,101.25773345092423,21,0,83,3
Ohiya Devils Staircase Camping,Nuwara Eliya,"A popular camping site along the Devils Staircase trail, offering adventure seekers an opportunity to experience nature overnight.",Central,Adventure/Camping,24.0,0.0,0.0,0.0,0.0,0.0,Yes,6.923448302251654,80.76182891368023,1,1,0.0,,Long,99.53174601888368,21,0,4,7
Prabhawa Mountain Day View Point,Nuwara Eliya,"A scenic viewpoint ideal for day trips, offering panoramic views of mountains and valleys with spots for picnics and photography.",Central,Scenic,2.0,0.0,0.0,0.0,0.0,0.0,Yes,6.92426809731866,80.82864284490954,1,45,0.0,,Short,106.9150781562571,21,0,145,3
Thangamale Sanctuary,Nuwara Eliya,"A protected natural sanctuary with rich biodiversity, featuring guided trails and opportunities to spot rare flora and fauna.",Central,Nature/Wildlife,3.0,0.0,0.0,0.0,0.0,0.0,Yes,6.985264438305708,80.83827484756195,1,8,0.0,,Short,108.16355752430908,21,0,118,3
